[{"title":"JEM – BlackBall Express","address":"JEM Jurong East, #B1-32","openingHours":"(Sun-Mon) 10.30am - 10pm","chain":"Blackball"},{"title":"Nex Serangoon","address":"23 Serangoon Central, #B1-46A, Singapore 556083","openingHours":"10.30am - 10pm (DAILY)","chain":"Blackball","location":{"SEARCHVAL":"STANDARD CHARTERED BANK NEX SERANGOON","X":"32367.720299918197","Y":"36988.3272987679","LATITUDE":"1.35078349664874","LONGITUDE":"103.872565308236","LONGTITUDE":"103.872565308236"}},{"title":"Ang Mo Kio – BlackBall Express","address":"53 Ang Mo Kio Ave 3, #01-17/18 AMK HUB, Singapore 569933","openingHours":"10am - 10pm (DAILY)","chain":"Blackball","location":{"SEARCHVAL":"OCBC AMK HUB","X":"29685.508303374103","Y":"39030.794586103395","LATITUDE":"1.36925511350953","LONGITUDE":"103.848464053097","LONGTITUDE":"103.848464053097"}},{"title":"Bedok Mall","address":"311 New Upper Changi Road, #01-03, Singapore 467360","openingHours":"10.30am – 10pm (DAILY)","chain":"Blackball","location":{"SEARCHVAL":"UOB BEDOK MALL","X":"38678.1713953437","Y":"34112.2887899857","LATITUDE":"1.32477207441096","LONGITUDE":"103.929267654625","LONGTITUDE":"103.929267654625"}},{"title":"Bugis+","address":"201 Victoria Street, Bugis+ #01-14, Singapore 188067","openingHours":"12pm – 11pm (DAILY)","chain":"Blackball","location":{"SEARCHVAL":"BUGIS JUNCTION","X":"30411.240752433398","Y":"31301.644199488703","LATITUDE":"1.29935537194421","LONGITUDE":"103.85498465676201","LONGTITUDE":"103.85498465676201"}},{"title":"Choa Chu Kang","address":"21 Choa Chu Kang Ave 4, #01-05 Lot One, Singapore 689812","openingHours":"11am – 10pm (DAILY)","chain":"Blackball","location":{"SEARCHVAL":"LOT ONE, SHOPPERS' MALL","X":"18175.2953746049","Y":"40784.2963688839","LATITUDE":"1.38511154927986","LONGITUDE":"103.745036167492","LONGTITUDE":"103.745036167492"}},{"title":"Each-A-Cup (ION Orchard)","address":"2 Orchard Turn, #B4-69, Singapore 238801","phone":"Tel: 91829307","chain":"Each-A-Cup","location":{"SEARCHVAL":"ORCHARD ROAD","X":"27881.2886395734","Y":"31826.03356684","LATITUDE":"1.3040978578789901","LONGITUDE":"103.83225190246799","LONGTITUDE":"103.83225190246799"}},{"title":"Each-A-Cup (Plaza Singapura)","address":"68 Orchard Road, #B2-48, Singapore 238839","phone":"Tel: 92380368","chain":"Each-A-Cup","location":{"SEARCHVAL":"DBS PLAZA SINGAPURA BRANCH","X":"29307.5238112044","Y":"31463.667293731098","LATITUDE":"1.3008207176923898","LONGITUDE":"103.84506727293801","LONGTITUDE":"103.84506727293801"}},{"title":"Each-A-Cup (Wilkie Edge)","address":"8 Wilkie Road, #01-06, Singapore 228095","phone":"Tel: 90101334","chain":"Each-A-Cup","location":{"SEARCHVAL":"WILKIE EDGE","X":"29814.3914362658","Y":"31603.3661457803","LATITUDE":"1.3020840794266","LONGITUDE":"103.849621716147","LONGTITUDE":"103.849621716147"}},{"title":"Each-A-Cup (Holland Village MRT)","address":"200 Holland Ave, #B1-12, Singapore 278995","phone":"Tel: 92380368","chain":"Each-A-Cup","location":{"SEARCHVAL":"HOLLAND VILLAGE MRT STATION (CC21)","X":"23891.215227396202","Y":"32726.412826772797","LATITUDE":"1.31224029631598","LONGITUDE":"103.796399122407","LONGTITUDE":"103.796399122407"}},{"title":"Each-A-Cup (The Centrepoint)","address":"176 Orchard Rd, #01-K5, The Centrepoint, Singapore 238843","phone":"Tel: 91829307","chain":"Each-A-Cup","location":{"SEARCHVAL":"DBS CENTERPOINT","X":"28749.6389850313","Y":"31540.3765042461","LATITUDE":"1.3015144672277499","LONGITUDE":"103.84005442693501","LONGTITUDE":"103.84005442693501"}},{"title":"Each-A-Cup (306 Ubi Avenue 1)","address":"Blk 306 Ubi Avenue 1, #01-195, Singapore 400306","phone":"Tel: 92380368","chain":"Each-A-Cup","location":{"SEARCHVAL":"306 UBI AVENUE 1 SINGAPORE 400306","X":"35635.787919999995","Y":"34676.0203","LATITUDE":"1.329871172","LONGITUDE":"103.9019304","LONGTITUDE":"103.9019304"}},{"title":"Each-A-Cup (87 Marine Parade Central)","address":"87 Marine Parade Central, #01-503B, Singapore 440087","phone":"Tel:","chain":"Each-A-Cup","location":{"SEARCHVAL":"MARINE PARADE PROMENADE","X":"36048.646726717205","Y":"31644.288732178502","LATITUDE":"1.30245317807701","LONGITUDE":"103.90563934359601","LONGTITUDE":"103.90563934359601"}},{"title":"Each-A-Cup (Bukit Timah Plaza)","address":"1 Jalan Anak Bukit, #K1-CS1, Bukit Timah Plaza, Singapore 588996","phone":"Tel: 98163863","chain":"Each-A-Cup","location":{"SEARCHVAL":"UOB BUKIT TIMAH PLAZA","X":"21908.7846068358","Y":"35644.6712985374","LATITUDE":"1.3386316527745201","LONGITUDE":"103.778585430975","LONGTITUDE":"103.778585430975"}},{"title":"Each-A-Cup (1 Tanjong Pagar Plaza)","address":"Blk 1 Tanjong Pagar Plaza, #01-15, Singapore 082001","phone":"Tel: 98163863","chain":"Each-A-Cup","location":{"SEARCHVAL":"MULTI STOREY CAR PARK","X":"29014.4293299187","Y":"28684.5123935789","LATITUDE":"1.27568702788787","LONGITUDE":"103.842433597114","LONGTITUDE":"103.842433597114"}},{"title":"Each-A-Cup (Marsiling)","address":"Blk 302 Woodlands St 31, #01-287, Singapore 730302","phone":"Tel: 66527683","chain":"Each-A-Cup","location":{"SEARCHVAL":"HDB-WOODLANDS","X":"21446.4093439039","Y":"45914.8306319285","LATITUDE":"1.4315111476004498","LONGITUDE":"103.774428425787","LONGTITUDE":"103.774428425787"}},{"title":"Each-a-Cup (Wisteria Mall)","address":"Wisteria Mall - 598 Yishun Ring Road, #01-22, Singapore 768698","phone":"Tel: 98393264","chain":"Each-A-Cup","location":{"SEARCHVAL":"WISTERIA MALL","X":"28881.1460796986","Y":"44420.6718044691","LATITUDE":"1.4179992628404001","LONGITUDE":"103.841236456898","LONGTITUDE":"103.841236456898"}},{"title":"Each-A-Cup (417 Yishun Ave 11)","address":"Blk 417 Yishun Mall Street 11, #01-347, Singapore 760417","phone":"Tel: 98163863","chain":"Each-A-Cup","location":{"SEARCHVAL":"417 YISHUN AVENUE 11 SINGAPORE 760417","X":"29447.8759976812","Y":"45126.7844556794","LATITUDE":"1.4243850673899099","LONGITUDE":"103.846329063065","LONGTITUDE":"103.846329063065"}},{"title":"Each-A-Cup (POIZ Centre)","address":"51 Upper Serangoon Road, #01-10, The POIZ Centre, Singapore 347697","phone":"Tel: 92380368","chain":"Each-A-Cup","location":{"SEARCHVAL":"THE POIZ CENTRE","X":"31868.191601528797","Y":"34834.3225217015","LATITUDE":"1.3313035144071599","LONGITUDE":"103.868076452861","LONGTITUDE":"103.868076452861"}},{"title":"Each-A-Cup (106 Yishun Ring Road @ Chong Pang)","address":"Blk 106 Yishun Ring Road, #01-151, Singapore 760106 (@ Chong Pang)","phone":"Tel: 98163863","chain":"Each-A-Cup","location":{"SEARCHVAL":"CHONG PANG GARDEN","X":"27347.1383922966","Y":"45911.1499240361","LATITUDE":"1.4314786143235099","LONGITUDE":"103.82745200421199","LONGTITUDE":"103.82745200421199"}},{"title":"Each-A-Cup (Jalan Kayu)","address":"254 Jalan Kayu, Singapore 799487 (Beside Thohirah)","phone":"Tel:","chain":"Each-A-Cup","location":{"SEARCHVAL":"JALAN KAYU ESTATE","X":"32449.52646","Y":"42230.14093","LATITUDE":"1.3981885619999999","LONGITUDE":"103.8733012","LONGTITUDE":"103.8733012"}},{"title":"Each-A-Cup (Senja Cashew CC)","address":"101 Bukit Panjang Road, #01-03, Singapore 679910","phone":"Tel: 91829307","chain":"Each-A-Cup","location":{"SEARCHVAL":"SENJA-CASHEW COMMUNITY CLUB","X":"20359.1201692289","Y":"40394.474764445804","LATITUDE":"1.38158679881089","LONGITUDE":"103.76465957760401","LONGTITUDE":"103.76465957760401"}},{"title":"Each-A-Cup (ITE College West)","address":"1 Choa Chu Kang Grove, #05-01, Singapore 688236","phone":"Tel: 97689119","chain":"Each-A-Cup","location":{"SEARCHVAL":"ITE COLLEGE WEST","X":"18974.6924987677","Y":"39672.1167718191","LATITUDE":"1.37505366356258","LONGITUDE":"103.75221969173599","LONGTITUDE":"103.75221969173599"}},{"title":"Each-A-Cup (502 Jurong West Ave 1)","address":"Blk 502 Jurong West Ave 1, # 01-825, Singapore 640502","phone":"Tel: 92380368","chain":"Each-A-Cup","location":{"SEARCHVAL":"HONG KAH POINT","X":"15203.5743513238","Y":"36957.3883343879","LATITUDE":"1.3505012767918199","LONGITUDE":"103.718334683095","LONGTITUDE":"103.718334683095"}},{"title":"Each-A-Cup (Nanyang Technological University)","address":"50 Nanyang Ave, NS3-01-21, Singapore 639798","phone":"Tel: 91829307","chain":"Each-A-Cup","location":{"SEARCHVAL":"NANYANG TECHNOLOGICAL UNIVERSITY (CW3)","X":"10933.4597982503","Y":"36478.541325520695","LATITUDE":"1.34616863877198","LONGITUDE":"103.679965382245","LONGTITUDE":"103.679965382245"}},{"title":"Each-A-Cup (one-north MRT)","address":"9 Ayer Rajah Avenue, #B2-01, Singapore 138647","phone":"Tel: 91829307","chain":"Each-A-Cup","location":{"SEARCHVAL":"ONE-NORTH MRT STATION (CC23)","X":"22896.0731153823","Y":"31346.4084891845","LATITUDE":"1.29975987849415","LONGITUDE":"103.78745750796999","LONGTITUDE":"103.78745750796999"}},{"title":"Each-A-Cup (Bukit Panjang Integrated Transport Hub)","address":"Bukit Panjang Integrated Transport Hub – 15 Petir Road, #01-61, Singapore 678270","phone":"Tel: 91829307","chain":"Each-A-Cup","location":{"SEARCHVAL":"BUKIT PANJANG INTEGRATED TRANSPORT HUB","X":"20156.9241962768","Y":"40045.529133709104","LATITUDE":"1.3784310082758702","LONGITUDE":"103.762842789877","LONGTITUDE":"103.762842789877"}},{"title":"Each-A-Cup (Dover MRT)","address":"200 Commonwealth Ave West, #02-02, Singapore 138677","phone":"Tel:","chain":"Each-A-Cup","location":{"SEARCHVAL":"DOVER MRT STATION (EW22)","X":"21914.550930146102","Y":"32634.1186314411","LATITUDE":"1.3114052932096398","LONGITUDE":"103.778637841909","LONGTITUDE":"103.778637841909"}},{"title":"Each-A-Cup (West Mall)","address":"1 Bukit Batok Central Link, #01-07, Singapore 658713","phone":"Tel: 91829307","chain":"Each-A-Cup","location":{"SEARCHVAL":"DBS WEST MALL","X":"18630.0725866565","Y":"36943.330914173304","LATITUDE":"1.35037541626111","LONGITUDE":"103.74912389291","LONGTITUDE":"103.74912389291"}},{"title":"Each-A-Cup (Ng Teng Fong Hospital)","address":"1, Jurong East St 21, #02-27 Tower A, Singapore 609606","phone":"Tel:","chain":"Each-A-Cup","location":{"SEARCHVAL":"NG TENG FONG GENERAL HOSPITAL (TOWER B)","X":"18234.1473524971","Y":"35073.2668839544","LATITUDE":"1.3334631144481202","LONGITUDE":"103.74556686142401","LONGTITUDE":"103.74556686142401"}},{"title":"Each-a-Cup (Library @ Ngee Ann Polytechnic)","address":"535, Clementi Road, Blk 1, Library, Singapore 599489","phone":"Tel:","chain":"Each-A-Cup","location":{"SEARCHVAL":"NGEE ANN POLYTECHNIC (BLK 45)","X":"21234.8137999475","Y":"34942.8669013269","LATITUDE":"1.33228464264891","LONGITUDE":"103.77252956555901","LONGTITUDE":"103.77252956555901"}},{"title":"Each-A-Cup (Causeway Point)","address":"1 Woodlands Square, #B1-K19, Singapore","phone":"Tel: 91829307","chain":"Each-A-Cup"},{"title":"Each-a-Cup (SIT @ NP Building)","address":"Ngee Ann Polytechnic, 537 Clementi Road, Singapore 599493","phone":"Tel: 91829307","chain":"Each-A-Cup","location":{"SEARCHVAL":"SINGAPORE INSTITUTE OF TECHNOLOGY@NP","X":"21441.8394837221","Y":"35147.200369020895","LATITUDE":"1.3341326066224701","LONGITUDE":"103.774389763468","LONGTITUDE":"103.774389763468"}},{"title":"Each-A-Cup (Rivervale Mall)","address":"11 Rivervale Crescent, #01-K7, Singapore 545082","phone":"Tel: 92380368","chain":"Each-A-Cup","location":{"SEARCHVAL":"11 RIVERVALE CRESCENT SINGAPORE 545082","X":"35919.7396821193","Y":"41601.664684627205","LATITUDE":"1.3925041099483502","LONGITUDE":"103.904483668323","LONGTITUDE":"103.904483668323"}},{"title":"Each-A-Cup (E!Avenue)","address":"1, Pasir Ris Close, #02-K2, Singapore 519599","phone":"Tel: 90099040","chain":"Each-A-Cup","location":{"SEARCHVAL":"COSTA SANDS RESORT (DOWNTOWN EAST)","X":"41591.1226485772","Y":"40122.7405808773","LATITUDE":"1.3791271787801103","LONGITUDE":"103.955444758145","LONGTITUDE":"103.955444758145"}},{"title":"Each-A-Cup (443 Pasir Ris Drive 6)","address":"443 Pasir Ris Drive 6, #01-14, Singapore 510443","phone":"Tel: 98163863","chain":"Each-A-Cup","location":{"SEARCHVAL":"443 PASIR RIS DRIVE 6 SINGAPORE 510443","X":"41808.2999114105","Y":"39048.1189508718","LATITUDE":"1.3694086062819901","LONGITUDE":"103.957395750219","LONGTITUDE":"103.957395750219"}},{"title":"Each-A-Cup (Kallang Leisure Park)","address":"5 Stadium Walk, #01-30, Singapore 397693","phone":"Tel: 91829307","chain":"Each-A-Cup","location":{"SEARCHVAL":"UOB KALLANG LEISURE PARK","X":"32773.2235953808","Y":"31586.2351026237","LATITUDE":"1.30192883841135","LONGITUDE":"103.87620817036199","LONGTITUDE":"103.87620817036199"}},{"title":"Each-A-Cup (Bedok Point)","address":"799 New Upper Changi Road, #02-24, Bedok Point, Singapore 467351","phone":"Tel: 91829307","chain":"Each-A-Cup","location":{"SEARCHVAL":"BEDOK POINT","X":"39024.9902159367","Y":"34115.503703875496","LATITUDE":"1.32480102552269","LONGITUDE":"103.932384005117","LONGTITUDE":"103.932384005117"}},{"title":"Each-A-Cup (477 Tampines Street 43)","address":"Blk 477 Tampines Street 43, #01-174, Singapore 520477","phone":"Tel:","chain":"Each-A-Cup","location":{"SEARCHVAL":"HDB-TAMPINES","X":"41307.1463671187","Y":"38109.6360829379","LATITUDE":"1.36092155092893","LONGITUDE":"103.95289212479601","LONGTITUDE":"103.95289212479601"}},{"title":"Each-A-Cup (12 Haig Road)","address":"Blk 12 Haig Road, #01-331, Singapore 430012","phone":"Tel: 98163863","chain":"Each-A-Cup","location":{"SEARCHVAL":"HAIG VIEW","X":"34990.2525800187","Y":"33099.5925186705","LATITUDE":"1.31561468089699","LONGITUDE":"103.89612952065599","LONGTITUDE":"103.89612952065599"}},{"title":"Each-A-Cup (802 Tampines Ave 4)","address":"802 Tampines Ave 4, #01-19B, Tampines Polyview, Singapore, 520802","phone":"Tel: 96681334","chain":"Each-A-Cup","location":{"SEARCHVAL":"TAMPINES POLYVIEW","X":"39653.68112","Y":"36468.94271","LATITUDE":"1.346084424","LONGITUDE":"103.938034","LONGTITUDE":"103.938034"}},{"title":"Each-A-Cup (89 Bedok North Street 4)","address":"89 Bedok North Street 4, #01-81, Singapore, 460089","phone":"Tel: 98163863","chain":"Each-A-Cup","location":{"SEARCHVAL":"HDB-BEDOK","X":"39655.667091243","Y":"34948.5643044375","LATITUDE":"1.3323346834926202","LONGITUDE":"103.938051284737","LONGTITUDE":"103.938051284737"}},{"title":"Each-A-Cup (201E Tampines Street 23)","address":"Blk 201E Tampines St 23, #01-102, Singapore 527201","phone":"Tel: 98163863","chain":"Each-A-Cup","location":{"SEARCHVAL":"HDB-TAMPINES","X":"41414.718599641696","Y":"37225.0485078841","LATITUDE":"1.3529216253600902","LONGITUDE":"103.953858335355","LONGTITUDE":"103.953858335355"}},{"title":"Each-A-Cup (95 Aljunied Crescent)","address":"95 Aljunied Crescent, #01-519, Singapore 380095 (Opposite Geylang East Market)","phone":"Tel:","chain":"Each-A-Cup","location":{"SEARCHVAL":"HDB-GEYLANG EAST","X":"33884.69822","Y":"33772.81434","LATITUDE":"1.32170329","LONGITUDE":"103.8861957","LONGTITUDE":"103.8861957"}},{"title":"Each-A-Cup (539 Bedok North Street 3)","address":"539 Bedok North Street 3, #01-611, Singapore 460539","phone":"Tel: 92380368","chain":"Each-A-Cup","location":{"SEARCHVAL":"HDB-BEDOK","X":"38237.3952445202","Y":"34835.630764493704","LATITUDE":"1.33131386579705","LONGITUDE":"103.925307290709","LONGTITUDE":"103.925307290709"}},{"title":"Each-A-Cup (208 Upper Changi)","address":"Blk 208 Upper Changi Road, #01-697, Singapore, 460208","phone":"Tel:","chain":"Each-A-Cup","location":{"SEARCHVAL":"BEDOK TOWN CENTRE","X":"38879.2655228851","Y":"34214.872707452596","LATITUDE":"1.32569973464372","LONGITUDE":"103.931074627428","LONGTITUDE":"103.931074627428"}},{"title":"1 Raffles Place (1RP)","address":"1 Raffles Place  #B1-39, Shopping Podium Tower 1, Singapore 048616","openingHours":"Mon - \n Fri 10am - 8pm\nSat - closed\nSun - closed\nPH - closed","chain":"Gong Cha","location":{"SEARCHVAL":"UOB ONE RAFFLES PLACE","X":"29973.4028055929","Y":"29630.9867053777","LATITUDE":"1.2842465641864098","LONGITUDE":"103.851050382307","LONGTITUDE":"103.851050382307"}},{"title":"313 Somerset (313)","address":"313 Orchard Road  #01-37, Singapore 238895","openingHours":"Mon - Sun 11am - 9pm","chain":"Gong Cha","location":{"SEARCHVAL":"OCBC 313@SOMERSET","X":"28548.4434900125","Y":"31484.215289570402","LATITUDE":"1.30100656917243","LONGITUDE":"103.838246592796","LONGTITUDE":"103.838246592796"}},{"title":"Ang Mo Kio (AMK)","address":"703 Ang Mo Kio Ave 3  #01-2531, Singapore 560703","openingHours":"Mon - Sun 10am - 10pm","chain":"Gong Cha","location":{"SEARCHVAL":"703 ANG MO KIO AVENUE 8 SINGAPORE 560703","X":"29558.3426061478","Y":"39088.3100509066","LATITUDE":"1.3697752698018","LONGITUDE":"103.847321383156","LONGTITUDE":"103.847321383156"}},{"title":"Bugis Junction (BJ)","address":"Bugis Junction  #03-08, The Victoria Street , Singapore 188021","openingHours":"Mon -Sun 10am - 10pm","chain":"Gong Cha","location":{"SEARCHVAL":"SHAW ORGANISATION (BUGIS)","X":"30449.4467267562","Y":"31269.866418475296","LATITUDE":"1.2990679819128998","LONGITUDE":"103.855327952042","LONGTITUDE":"103.855327952042"}},{"title":"Causeway Point  (CWP)","address":"Causeway Point 1 Woodlands Square   #02-K10, Singapore 738099","openingHours":"Mon - \n Sun 10am - 10pm","chain":"Gong Cha","location":{"SEARCHVAL":"CATHAY CINEPLEX CAUSEWAY POINT","X":"22699.523422917402","Y":"46412.0238526948","LATITUDE":"1.4360078447427198","LONGITUDE":"103.78568873405001","LONGTITUDE":"103.78568873405001"}},{"title":"Century Square (CSQ)","address":"2 Tampines Central 5  #01-39, Century Square, Singapore 529509","openingHours":"Mon - \n Sun 10am - 10pm","chain":"Gong Cha","location":{"SEARCHVAL":"MAYBANK OFFSITE@CENTURYSQUARE","X":"40300.8620049395","Y":"37155.3079255279","LATITUDE":"1.35229139706408","LONGITUDE":"103.943849611798","LONGTITUDE":"103.943849611798"}},{"title":"Changi Hospital (CGH)","address":"6 Simei street 3, #01-03   Singapore , Singapore , 529898","openingHours":"Mon - \n Fri 10am - 7pm\nSat Closed\n\nSun Closed\n\nPH closed","chain":"Gong Cha","location":{"SEARCHVAL":"ORANGE VALLEY NURSING HOME (SIMEI)","X":"40770.6758972816","Y":"35875.7645998336","LATITUDE":"1.34071948819972","LONGITUDE":"103.948070640441","LONGTITUDE":"103.948070640441"}},{"title":"Compass One (COM)","address":"Compass One 1  #02-40/41, Sengkang Square, Singapore 545078","openingHours":"Mon -Sun 10am - 10pm","chain":"Gong Cha","location":{"SEARCHVAL":"OCBC COMPASS ONE BRANCH","X":"34871.4422991602","Y":"41551.8980052639","LATITUDE":"1.39205430537991","LONGITUDE":"103.895063884132","LONGTITUDE":"103.895063884132"}},{"title":"Eunos MRT (EUNOS)","address":"30 Eunos Crescent  #01-10, Eunos MRT Station, Singapore 409423","openingHours":"Mon - \n Sun 10am - 10pm","chain":"Gong Cha","location":{"SEARCHVAL":"EUNOS MRT STATION (EW7)","X":"35779.9889810141","Y":"33560.5857454669","LATITUDE":"1.31978354779207","LONGITUDE":"103.903225812967","LONGTITUDE":"103.903225812967"}},{"title":"FUNAN Centre","address":"109 North Bridge Road   Singapore , S179097","openingHours":"Mon-Sun 11am - 9pm","chain":"Gong Cha","location":{"SEARCHVAL":"FUNAN O1","X":"29883.4235964613","Y":"30419.4526682924","LATITUDE":"1.2913771787227901","LONGITUDE":"103.850241930617","LONGTITUDE":"103.850241930617"}},{"title":"Hougang Mall (HGM)","address":"10 Hougang Mall, 90 Hougang Ave 10   #B1-14/15, Singapore 538766","openingHours":"Mon - Sun 10am - 10pm","chain":"Gong Cha","location":{"SEARCHVAL":"HOUGANG MALL","X":"34722.3700276464","Y":"39382.686895858504","LATITUDE":"1.37243678271745","LONGITUDE":"103.893723857613","LONGTITUDE":"103.893723857613"}},{"title":"Lot One Shoppers' Mall","address":"21 Choa Chu Kang Ave 4   #04-18A, Singapore 689812","openingHours":"Mon - Sun 10am - 10pm","chain":"Gong Cha","location":{"SEARCHVAL":"LOT ONE, SHOPPERS' MALL","X":"18175.2953746049","Y":"40784.2963688839","LATITUDE":"1.38511154927986","LONGITUDE":"103.745036167492","LONGTITUDE":"103.745036167492"}},{"title":"Mapletree Business City (MTBC)","address":"10 Pasir Panjang Road   Singapore , S 117438","openingHours":"Mon - \n Fri 10am - 7pm\nSat - Closed\nSun - Closed\nPH - Closed","chain":"Gong Cha","location":{"SEARCHVAL":"MAPLETREE BUSINESS CITY","X":"24173.038244493302","Y":"28602.046666581202","LATITUDE":"1.27494102164677","LONGITUDE":"103.798931943163","LONGTITUDE":"103.798931943163"}},{"title":"Marina Square (MSQ)","address":"6 Raffles Boulevard  #03-212, Singapore 039594","openingHours":"Mon - Sun 11am - 8pm","chain":"Gong Cha","location":{"SEARCHVAL":"OCBC MARINA SQUARE","X":"30640.9600991439","Y":"30443.522707251803","LATITUDE":"1.2915948049433401","LONGITUDE":"103.85704871565599","LONGTITUDE":"103.85704871565599"}},{"title":"NEX","address":"23 Serangoon Central  #B1-44, Singapore 689812","openingHours":"Mon - Sun 10am - 10pm","chain":"Gong Cha","location":{"SEARCHVAL":"LOT ONE, SHOPPERS' MALL","X":"18175.2953746049","Y":"40784.2963688839","LATITUDE":"1.38511154927986","LONGITUDE":"103.745036167492","LONGTITUDE":"103.745036167492"}},{"title":"Northpoint (NP)","address":"930 Yishun Avenue 2  #01-06, North Wing of Northpoint City, Singapore 769098","openingHours":"Mon - \n Sun 10am - 10pm","chain":"Gong Cha","location":{"SEARCHVAL":"930 YISHUN AVENUE 2 SINGAPORE 769098","X":"28273.529019127596","Y":"45714.311626344905","LATITUDE":"1.4296984862629099","LONGITUDE":"103.835776491468","LONGTITUDE":"103.835776491468"}},{"title":"NUS Science Canteen Frontier (NUSF)","address":"12 Science Drive 2  Singapore , S117549","openingHours":"Mon - \n Fri 11am - 7pm\nSat - closed \nSun - closed\nPH - closed","chain":"Gong Cha","location":{"SEARCHVAL":"NATIONAL UNIVERSITY OF SINGAPORE (MD1)","X":"22122.866998602596","Y":"30862.922245916","LATITUDE":"1.2953872642537099","LONGITUDE":"103.78050999691601","LONGTITUDE":"103.78050999691601"}},{"title":"NUS UTown (NUS)","address":"Fine Food @ NUS UTown,1 Create Way   #01-04 NUS UTown , Singapore 138602","openingHours":"Mon - \n Sun 11am - 8pm","chain":"Gong Cha","location":{"SEARCHVAL":"UNIVERSITY TOWN (CREATE)","X":"21402.049404203","Y":"31814.909023445096","LATITUDE":"1.30399654877954","LONGITUDE":"103.774032940413","LONGTITUDE":"103.774032940413"}},{"title":"Pasir Ris MRT (PRM)","address":"10 Pasir Ris Central  #01-14, Pasir Ris MRT Station, Singapore 519634","openingHours":"Mon - \n Sun 10am - 10pm","chain":"Gong Cha","location":{"SEARCHVAL":"PASIR RIS MRT STATION (EW1)","X":"40905.6061495682","Y":"39449.970807582096","LATITUDE":"1.37304321206226","LONGITUDE":"103.949284605816","LONGTITUDE":"103.949284605816"}},{"title":"Paya Lebar Quarter","address":"10 Paya Lebar Rd  #B2-15, Singapore 409057","openingHours":"Mon - \n Sun 10am - 10pm","chain":"Gong Cha","location":{"SEARCHVAL":"PLQ MALL","X":"34623.288085627406","Y":"33306.0965337455","LATITUDE":"1.3174823105835802","LONGITUDE":"103.892832205276","LONGTITUDE":"103.892832205276"}},{"title":"Plaza Sing (PZS)","address":"68 Orchard Road  #B1-K7, Plaza Singapura, Singapore 238839","openingHours":"Mon - \n Sun 10am - 10pm","chain":"Gong Cha","location":{"SEARCHVAL":"DBS PLAZA SINGAPURA BRANCH","X":"29307.5238112044","Y":"31463.667293731098","LATITUDE":"1.3008207176923898","LONGITUDE":"103.84506727293801","LONGTITUDE":"103.84506727293801"}},{"title":"Simei MRT (SMM)","address":"30 Simei Street 3  #01-04, Simei MRT Station , Singapore 529888","openingHours":"Mon - Sun 10am - 10pm","chain":"Gong Cha","location":{"SEARCHVAL":"SIMEI MRT STATION (EW3)","X":"41360.6137917796","Y":"36150.3958834633","LATITUDE":"1.34320289478118","LONGITUDE":"103.953371694102","LONGTITUDE":"103.953371694102"}},{"title":"Singapore University of Technology & Design  (SUTD)","address":"8 Somapah Road  #01-302, Singapore 487372","openingHours":"Mon - \n Fri 10am - 6.30pm\nSat 10am - 2pm\nSun & PH closed","chain":"Gong Cha","location":{"SEARCHVAL":"SINGAPORE UNIVERSITY OF TECHNOLOGY AND DESIGN (BUILDING 1)","X":"42372.2915454423","Y":"35819.9252548963","LATITUDE":"1.34021377704085","LONGITUDE":"103.96246205284099","LONGTITUDE":"103.96246205284099"}},{"title":"Singpost (SP)","address":"10 Eunos Road 8  #01-141A/141B, Singapore Post Centre, Singapore 408600","openingHours":"Mon - \n Sun 10am - 10pm","chain":"Gong Cha","location":{"SEARCHVAL":"HEART OF GOD CHURCH","X":"34834.6405474059","Y":"33459.479843912595","LATITUDE":"1.3188694078846799","LONGITUDE":"103.89473134834299","LONGTITUDE":"103.89473134834299"}},{"title":"SMU café 2.0 (SMU)","address":"50 Stamford Road  #01-01, Lee Kong Chian of Business, Singapore 178899","openingHours":"Mon - \nFri 11am - 8pm\n Sat - Closed \n Sun - Closed \n PH - Closed","chain":"Gong Cha","location":{"SEARCHVAL":"SINGAPORE MANAGEMENT UNIVERSITY (LEE KONG CHIAN SCH OF BUSINESS)","X":"29919.509237988903","Y":"30830.0475229044","LATITUDE":"1.29509045190874","LONGITUDE":"103.850566200283","LONGTITUDE":"103.850566200283"}},{"title":"SPH","address":"1000 Toa Payoh North  News Centre Cafeteria Stall No. 5, Singapore 318994","openingHours":"Mon - Fri 11am - 4pm\nSat & Sun - Closed","chain":"Gong Cha","location":{"SEARCHVAL":"LIANHE WANBAO","X":"29692.3126369184","Y":"36134.9579707794","LATITUDE":"1.3430661989023798","LONGITUDE":"103.848525031516","LONGTITUDE":"103.848525031516"}},{"title":"Takashimaya  (TAKA)","address":"391A Orchard Road  #B2 08-7, Takashimaya Department Store, Singapore 238873","openingHours":"Mon - \n Sun 11am - 8pm\nFri & \n Sat 11am - 930pm","chain":"Gong Cha","location":{"SEARCHVAL":"NGEE ANN CITY","X":"28151.0824940456","Y":"31640.966003728998","LATITUDE":"1.30242417189412","LONGITUDE":"103.83467612472299","LONGTITUDE":"103.83467612472299"}},{"title":"Tampines MRT (TMRT)","address":"20 Tampines Central 1   Singapore, 529538","openingHours":"Mon - \n Sun 10am - 10pm","chain":"Gong Cha","location":{"SEARCHVAL":"TAMPINES MRT STATION (EW2)","X":"40444.9846136123","Y":"37267.0103757698","LATITUDE":"1.3533015326595301","LONGITUDE":"103.945144689278","LONGTITUDE":"103.945144689278"}},{"title":"Tan Tock Seng Hospital (TTSH)","address":"16 Jalan Tan Tock Seng  #B1-03, Tan Tock Seng Hospital, Singapore 308442","openingHours":"Mon - \n Fri 10am - 7pm\nSat,Sun & PH - Closed","chain":"Gong Cha","location":{"SEARCHVAL":"NATIONAL CENTRE FOR INFECTIOUS DISEASES","X":"29617.1056567039","Y":"33733.8308460135","LATITUDE":"1.32135126078246","LONGITUDE":"103.847849124245","LONGTITUDE":"103.847849124245"}},{"title":"Toa Payoh (TPY)","address":"Blk 190 Lorong 6   Toa Payoh #01-546, Singapore 310190","openingHours":"Mon -Sun 10am - 10pm","chain":"Gong Cha","location":{"SEARCHVAL":"TOA PAYOH CENTRAL","X":"29712.344109614398","Y":"35019.5821351688","LATITUDE":"1.33297913475345","LONGITUDE":"103.848704963622","LONGTITUDE":"103.848704963622"}},{"title":"Westgate (WG)","address":"3 Gateway Drive  #02-27, Westgate, Singapore 608532","openingHours":"Mon - \n Sun 10am - 10pm","chain":"Gong Cha","location":{"SEARCHVAL":"WESTGATE","X":"17934.0295790741","Y":"35163.9510344267","LATITUDE":"1.33428313049539","LONGITUDE":"103.74287010551201","LONGTITUDE":"103.74287010551201"}},{"title":"Woodlands MRT (WLM)","address":"30 Woodlands  Avenue 2 #01-40, Woodlands MRT Station, Singapore 738343","openingHours":"Mon - \n Sun 10am - 10pm","chain":"Gong Cha","location":{"SEARCHVAL":"WOODLANDS MRT STATION (NS9)","X":"22741.5981903831","Y":"46501.7861009184","LATITUDE":"1.43681962961519","LONGITUDE":"103.786066799253","LONGTITUDE":"103.786066799253"}},{"title":"Paya Lebar Quarter","address":"10 Paya Lebar Road #B1-02, Paya Lebar Quarter S(409057)","phone":"Paya Lebar Quarter","openingHours":"(+65) 6974-3428","chain":"KOI","location":{"SEARCHVAL":"PLQ MALL","X":"34623.288085627406","Y":"33306.0965337455","LATITUDE":"1.3174823105835802","LONGITUDE":"103.892832205276","LONGTITUDE":"103.892832205276"}},{"title":"Tanjong Pagar Plaza","address":"Blk 1 Tanjong Pagar Plaza, #01-38 S(082001)","phone":"Tanjong Pagar Plaza","openingHours":"(+65) 6816-0766","chain":"KOI","location":{"SEARCHVAL":"MULTI STOREY CAR PARK","X":"29014.4293299187","Y":"28684.5123935789","LATITUDE":"1.27568702788787","LONGITUDE":"103.842433597114","LONGTITUDE":"103.842433597114"}},{"title":"J Cube","address":"2 Jurong East Central 1, #01-03 JCube, S(609731)","phone":"J Cube","openingHours":"(+65) 6974-2652","chain":"KOI","location":{"SEARCHVAL":"DBS JCUBE","X":"17649.945089573997","Y":"35051.2179290708","LATITUDE":"1.33326351781135","LONGITUDE":"103.74031748518601","LONGTITUDE":"103.74031748518601"}},{"title":"Downtown East","address":"1 Pasir Ris Close #01-341, Downtown East, S(519599)","phone":"Downtown East","openingHours":"(+65) 6459-1518","chain":"KOI","location":{"SEARCHVAL":"COSTA SANDS RESORT (DOWNTOWN EAST)","X":"41591.1226485772","Y":"40122.7405808773","LATITUDE":"1.3791271787801103","LONGITUDE":"103.955444758145","LONGTITUDE":"103.955444758145"}},{"title":"Peranakan Place","address":"180A Orchard Road, Peranakan Place, S(238845)","phone":"Peranakan Place","openingHours":"(+65) 6974-2656","chain":"KOI","location":{"SEARCHVAL":"PERANAKAN PLACE","X":"28663.2625134652","Y":"31527.8517033886","LATITUDE":"1.30140119930029","LONGITUDE":"103.839278294734","LONGTITUDE":"103.839278294734"}},{"title":"Great World City","address":"1 Kim Seng Promenade, #01-125 Great World City, S(237994)","phone":"Great World City","openingHours":"(+65) 6920-2558","chain":"KOI","location":{"SEARCHVAL":"DBS GREAT WORLD CITY","X":"27850.5676046759","Y":"30651.519085263797","LATITUDE":"1.29347596207044","LONGITUDE":"103.831975865363","LONGTITUDE":"103.831975865363"}},{"title":"Junction 8","address":"Junction 8 Shopping Centre, 9 Bishan Place, #02-26 S(579837)","phone":"Junction 8","openingHours":"(+65) 6258-1729","chain":"KOI","location":{"SEARCHVAL":"DBS BISHAN BRANCH","X":"29687.0319028711","Y":"36928.1372943874","LATITUDE":"1.3502394308637","LONGITUDE":"103.848477625201","LONGTITUDE":"103.848477625201"}},{"title":"Plaza Singapura (Basement)","address":"68 Orchard Road #B2-11 Plaza Singapura, S(238839)","phone":"Plaza Singapura (Basement)","openingHours":"(+65) 6815-1198","chain":"KOI","location":{"SEARCHVAL":"DBS PLAZA SINGAPURA BRANCH","X":"29307.5238112044","Y":"31463.667293731098","LATITUDE":"1.3008207176923898","LONGITUDE":"103.84506727293801","LONGTITUDE":"103.84506727293801"}},{"title":"Ang Mo Kio Hub","address":"53 Ang Mo Kio Ave 3 #01-44, S(569933)","phone":"Ang Mo Kio Hub","openingHours":"(+65) 6815-2976","chain":"KOI","location":{"SEARCHVAL":"OCBC AMK HUB","X":"29685.508303374103","Y":"39030.794586103395","LATITUDE":"1.36925511350953","LONGITUDE":"103.848464053097","LONGTITUDE":"103.848464053097"}},{"title":"Sun Plaza Mall","address":"30 Sembawang Drive #02-09 Sun Plaza S(757713)","phone":"Sun Plaza Mall","openingHours":"(+65) 6957-6488","chain":"KOI","location":{"SEARCHVAL":"DBS NTUC SUN PLAZA","X":"26465.5651452048","Y":"47760.161058181904","LATITUDE":"1.44820036592785","LONGITUDE":"103.819530140823","LONGTITUDE":"103.819530140823"}},{"title":"North Point City","address":"1 Northpoint Drive, South Wing of Northpoint City #B2-157 S(768019)","phone":"North Point City","openingHours":"(+65) 6957-4203","chain":"KOI","location":{"SEARCHVAL":"NORTHPOINT CITY","X":"28308.6518360926","Y":"45530.4659514707","LATITUDE":"1.42803585211788","LONGITUDE":"103.836092100712","LONGTITUDE":"103.836092100712"}},{"title":"Tiong Bahru Plaza","address":"302 Tiong Bahru Road #01-155, S(168732)","phone":"Tiong Bahru Plaza","openingHours":"(+65) 6816-0728","chain":"KOI","location":{"SEARCHVAL":"GOLDEN VILLAGE (TIONG BAHRU)","X":"27289.56998879","Y":"29876.1129400879","LATITUDE":"1.2864634535506498","LONGITUDE":"103.82693507969401","LONGTITUDE":"103.82693507969401"}},{"title":"Takashimaya","address":"391 Orchard Road #B2-37C, Takashimaya Shopping Centre, Ngee Ann City, S (238872)","phone":"Takashimaya","openingHours":"(+65) 6815-5488","chain":"KOI","location":{"SEARCHVAL":"DBS NGEE ANN CITY BRANCH","X":"28151.0824940456","Y":"31640.966003728998","LATITUDE":"1.30242417189412","LONGITUDE":"103.83467612472299","LONGTITUDE":"103.83467612472299"}},{"title":"Jurong East MRT","address":"10 Jurong East Street 12, #01-09, S(609690)","phone":"Jurong East MRT","openingHours":"(+65) 6931-1044","chain":"KOI","location":{"SEARCHVAL":"JURONG EAST MRT STATION (EW24 / NS1)","X":"17869.0806001499","Y":"35038.9471976683","LATITUDE":"1.33315261987296","LONGITUDE":"103.742286544006","LONGTITUDE":"103.742286544006"}},{"title":"Raffles City","address":"252 North Bridge Road #B1-71,Singapore 179103, Raffles City Shopping Centre, S(179103)","phone":"Raffles City","openingHours":"(+65) 6931-1040","chain":"KOI","location":{"SEARCHVAL":"RAFFLES CITY TOWER","X":"30227.3001874285","Y":"30717.926103232403","LATITUDE":"1.29407644483073","LONGITUDE":"103.853331827088","LONGTITUDE":"103.853331827088"}},{"title":"HarbourFront Centre","address":"1 Maritime Square #01-67A, Harbourfront Centre S(099253)","phone":"HarbourFront Centre","openingHours":"(+65) 6920-6729","chain":"KOI","location":{"SEARCHVAL":"OCBC MARITIME SQUARE","X":"26540.975102517797","Y":"27402.052596312","LATITUDE":"1.2640888929443799","LONGITUDE":"103.820208766742","LONGTITUDE":"103.820208766742"}},{"title":"Tampines Mall","address":"4 Tampines Central 5 #02-K3B, Tampines Mall S(529510)","phone":"Tampines Mall","openingHours":"(+65) 6443-6502","chain":"KOI","location":{"SEARCHVAL":"UOB TAMPINES MALL","X":"40360.774603248596","Y":"37197.4314849842","LATITUDE":"1.3526723221023402","LONGITUDE":"103.944387981063","LONGTITUDE":"103.944387981063"}},{"title":"Novena Square","address":"238 Thomson Road #01-61, Novena Square S(307683)","phone":"Novena Square","openingHours":"(+65) 6266-1857","chain":"KOI","location":{"SEARCHVAL":"VELOCITY @ NOVENA SQUARE","X":"29192.4729349958","Y":"33561.1363200918","LATITUDE":"1.31978949204526","LONGITUDE":"103.84403356919901","LONGTITUDE":"103.84403356919901"}},{"title":"Choa Chu Kang MRT","address":"10 Choa Chu Kang Avenue 4 #01-04, Choa Chu Kang MRT S(689810)","phone":"Choa Chu Kang MRT","openingHours":"(+65) 6760-0617","chain":"KOI","location":{"SEARCHVAL":"CHOA CHU KANG MRT STATION (NS4)","X":"18101.2472041473","Y":"40812.1216052435","LATITUDE":"1.38536316540227","LONGITUDE":"103.744370779756","LONGTITUDE":"103.744370779756"}},{"title":"Hillion Mall","address":"17 Petir Road #B2-53, Hillion Mall S(678278)","phone":"Hillion Mall","openingHours":"(+65) 6252-1041","chain":"KOI","location":{"SEARCHVAL":"BUKIT PANJANG INTEGRATED TRANSPORT HUB","X":"20156.9241962768","Y":"40045.5291034412","LATITUDE":"1.37843100800214","LONGITUDE":"103.762842789877","LONGTITUDE":"103.762842789877"}},{"title":"Jurong Point","address":"1 Jurong West Central 2 #02-41C, Jurong Point S(648886)","phone":"Jurong Point","openingHours":"(+65) 6266-0287","chain":"KOI","location":{"SEARCHVAL":"JURONG POINT","X":"13907.0305282855","Y":"35735.677712231896","LATITUDE":"1.3394520043632099","LONGITUDE":"103.706685012926","LONGTITUDE":"103.706685012926"}},{"title":"The Arcade","address":"11 Collyer Quay #01-12, The Arcade S(049317)","phone":"The Arcade","openingHours":"(+65) 6221-1560","chain":"KOI","location":{"SEARCHVAL":"DBS COLLYER QUAY EBC 1","X":"30085.6390922638","Y":"29561.6857049502","LATITUDE":"1.28361982304995","LONGITUDE":"103.852058865041","LONGTITUDE":"103.852058865041"}},{"title":"Woodlands MRT","address":"30 Woodlands Avenue 2 #01-16, Woodlands MRT S(738343)","phone":"Woodlands MRT","openingHours":"(+65) 6362-1608","chain":"KOI","location":{"SEARCHVAL":"WOODLANDS MRT STATION (NS9)","X":"22741.5981903831","Y":"46501.7861009184","LATITUDE":"1.43681962961519","LONGITUDE":"103.786066799253","LONGTITUDE":"103.786066799253"}},{"title":"Eastpoint Mall","address":"3 Simei Street 6 #01-08, Eastpoint Mall S(528833)","phone":"Eastpoint Mall","openingHours":"(+65) 6443-5874","chain":"KOI","location":{"SEARCHVAL":"DBS EASTPOINT BR 1","X":"41324.8995989487","Y":"36093.9015998933","LATITUDE":"1.3426919975060099","LONGITUDE":"103.953050756306","LONGTITUDE":"103.953050756306"}},{"title":"Chinatown Point","address":"133 New Bridge Road #01-39, Chinatown Point S(059413)","phone":"Chinatown Point","openingHours":"(+65) 6221-2140","chain":"KOI","location":{"SEARCHVAL":"DBS NTUC CHINATOWN POINT","X":"29293.6914939852","Y":"29734.767994012702","LATITUDE":"1.28518516098543","LONGITUDE":"103.84494291227399","LONGTITUDE":"103.84494291227399"}},{"title":"Waterway Point","address":"83 Punggol Central #B1-K2, Waterway Point S(828761)","phone":"Waterway Point","openingHours":"(+65) 6385-9396","chain":"KOI","location":{"SEARCHVAL":"DBS WATERWAY POINT BRANCH","X":"35670.420423625","Y":"43136.215863945","LATITUDE":"1.4063820961698401","LONGITUDE":"103.902243744842","LONGTITUDE":"103.902243744842"}},{"title":"White Sands","address":"1 Pasir Ris Central St.3 #01-32, White Sands mall S(518457)","phone":"White Sands","openingHours":"(+65) 6384-5016","chain":"KOI","location":{"SEARCHVAL":"WHITE SANDS","X":"40957.3163058981","Y":"39378.7373477351","LATITUDE":"1.37239898072244","LONGITUDE":"103.949749226457","LONGTITUDE":"103.949749226457"}},{"title":"Tampines MRT","address":"20 Tampines Central 1 #01-08, Tampines MRT S(529538)","phone":"Tampines MRT","openingHours":"(+65) 6587-4719","chain":"KOI","location":{"SEARCHVAL":"TAMPINES MRT STATION (EW2)","X":"40444.9846136123","Y":"37267.0103757698","LATITUDE":"1.3533015326595301","LONGITUDE":"103.945144689278","LONGTITUDE":"103.945144689278"}},{"title":"Yew Tee MRT","address":"61 Choa Chu Kang Drive #01-03, Yew Tee MRT S(689715)","phone":"Yew Tee MRT","openingHours":"(+65) 6765-7184","chain":"KOI","location":{"SEARCHVAL":"YEW TEE MRT STATION (NS5)","X":"18438.9791220082","Y":"42158.012381514505","LATITUDE":"1.3975350176262302","LONGITUDE":"103.74740511433599","LONGTITUDE":"103.74740511433599"}},{"title":"Ion Orchard","address":"2 Orchard Turn # B4-35, ION Orchard S(238801)","phone":"Ion Orchard","openingHours":"(+65) 6509-3084","chain":"KOI","location":{"SEARCHVAL":"ORCHARD ROAD","X":"27881.2886395734","Y":"31826.03356684","LATITUDE":"1.3040978578789901","LONGITUDE":"103.83225190246799","LONGTITUDE":"103.83225190246799"}},{"title":"CityLink Mall","address":"1 Raffles Link #B1-66, CityLink Mall S(039393)","phone":"CityLink Mall","openingHours":"(+65) 6327-9095","chain":"KOI","location":{"SEARCHVAL":"CITYLINK MALL","X":"30375.4462586408","Y":"30530.189115833502","LATITUDE":"1.2923786067095901","LONGITUDE":"103.85466296886801","LONGTITUDE":"103.85466296886801"}},{"title":"Seletar Mall","address":"33 Sengkang West Ave #B1-K6, Seletar Mall S(797653)","phone":"Seletar Mall","openingHours":"(+65) 6702-4836","chain":"KOI","location":{"SEARCHVAL":"DBS SELETAR MALL ABM","X":"32776.2588082524","Y":"41479.152992576404","LATITUDE":"1.39139684608919","LONGITUDE":"103.876237007474","LONGTITUDE":"103.876237007474"}},{"title":"Bukit Batok MRT","address":"10 Bukit Batok Central #01-07, Bukit Batok MRT S(659958)","phone":"Bukit Batok MRT","openingHours":"(+65) 6563-1496","chain":"KOI","location":{"SEARCHVAL":"BUKIT BATOK MRT STATION (NS2)","X":"18679.3541307775","Y":"36795.014101265","LATITUDE":"1.3490341085881201","LONGITUDE":"103.74956676412901","LONGTITUDE":"103.74956676412901"}},{"title":"Bishan MRT","address":"200 Bishan Road #01-05, Bishan MRT S(579827)","phone":"Bishan MRT","openingHours":"(+65) 6259-1432","chain":"KOI","location":{"SEARCHVAL":"BISHAN MRT STATION (NS17)","X":"29649.898807498597","Y":"36994.433016980096","LATITUDE":"1.3508389878474","LONGITUDE":"103.848143964542","LONGTITUDE":"103.848143964542"}},{"title":"Ang Mo Kio MRT","address":"2450 Ang Mo Kio Ave8 #01-05, Ang Mo Kio MRT S(569811)","phone":"Ang Mo Kio MRT","openingHours":"(+65) 6459-3763","chain":"KOI","location":{"SEARCHVAL":"ANG MO KIO MRT STATION (NS16)","X":"29807.265444858902","Y":"39105.7720139287","LATITUDE":"1.3699331753644401","LONGITUDE":"103.849558130943","LONGTITUDE":"103.849558130943"}},{"title":"Hougang Mall","address":"90 Hougang Ave 10, #01-15 Singapore S(538766)","phone":"Hougang Mall","openingHours":"(+65) 6343-4234","chain":"KOI","location":{"SEARCHVAL":"HOUGANG MALL","X":"34722.3700276464","Y":"39382.686895858504","LATITUDE":"1.37243678271745","LONGITUDE":"103.893723857613","LONGTITUDE":"103.893723857613"}},{"title":"Boon Lay","address":"301 Boon Lay way #01-34, Boon Lay MRT S(649846)","phone":"Boon Lay","openingHours":"(+65) 6795-6342","chain":"KOI","location":{"SEARCHVAL":"BOON LAY MRT STATION (EW27)","X":"13837.982719541498","Y":"35641.9191215821","LATITUDE":"1.3386040546984599","LONGITUDE":"103.706064622772","LONGTITUDE":"103.706064622772"}},{"title":"Paya Lebar","address":"30 Paya Lebar Rd. #01-04, Paya Lebar MRT S(409006)","phone":"Paya Lebar","openingHours":"(+65) 6743-1200","chain":"KOI","location":{"SEARCHVAL":"PAYA LEBAR MRT STATION (EW8)","X":"34648.6772941211","Y":"33375.7340536173","LATITUDE":"1.31811208187581","LONGITUDE":"103.893060355199","LONGTITUDE":"103.893060355199"}},{"title":"Changi City Point","address":"5 Changi Business Park Central 1 #B1-18, Changi City Point S(486038)","phone":"Changi City Point","openingHours":"(+65) 6636-0347","chain":"KOI","location":{"SEARCHVAL":"CHANGI CITY POINT","X":"42423.026951625","Y":"35136.8611284625","LATITUDE":"1.3340363790270802","LONGITUDE":"103.96291761553101","LONGTITUDE":"103.96291761553101"}},{"title":"City Square Mall","address":"180 Kitchener Road #B1-K6, City Square Mall S(208539)","phone":"City Square Mall","openingHours":"(+65) 6634-9361","chain":"KOI","location":{"SEARCHVAL":"CITY SQUARE MALL","X":"30611.1188334608","Y":"32642.0430317223","LATITUDE":"1.3114774495223402","LONGITUDE":"103.85678076298599","LONGTITUDE":"103.85678076298599"}},{"title":"NEX","address":"23 Serangoon Central #B1-07, NEX Mall S(556083)","phone":"NEX","openingHours":"(+65) 6634-8623","chain":"KOI","location":{"SEARCHVAL":"STANDARD CHARTERED BANK NEX SERANGOON","X":"32367.720299918197","Y":"36988.3272987679","LATITUDE":"1.35078349664874","LONGITUDE":"103.872565308236","LONGTITUDE":"103.872565308236"}},{"title":"Changi Airport T3","address":"65 Airport Boulevard #B2-12, Changi Airport Terminal 3 S(819663)","phone":"Changi Airport T3","openingHours":"(+65) 6543-2080","chain":"KOI","location":{"SEARCHVAL":"CHANGI AIRPORT TERMINAL 3 BUILDING","X":"45048.9755487796","Y":"37644.8299679644","LATITUDE":"1.35671611225461","LONGITUDE":"103.986514607903","LONGTITUDE":"103.986514607903"}},{"title":"Plaza Singapura","address":"68 Orchard Rd #01-68, Plaza Singapura S(238839)","phone":"Plaza Singapura","openingHours":"(+65) 6238-0365","chain":"KOI","location":{"SEARCHVAL":"DBS PLAZA SINGAPURA BRANCH","X":"29307.5238112044","Y":"31463.667293731098","LATITUDE":"1.3008207176923898","LONGITUDE":"103.84506727293801","LONGTITUDE":"103.84506727293801"}},{"title":"313@Somerset","address":"313 Orchard Rd #B3-51, 313@Somerset S(238895)","phone":"313@Somerset","openingHours":"(+65) 6835-9476","chain":"KOI","location":{"SEARCHVAL":"OCBC 313@SOMERSET","X":"28548.4434900125","Y":"31484.215289570402","LATITUDE":"1.30100656917243","LONGITUDE":"103.838246592796","LONGTITUDE":"103.838246592796"}},{"title":"VivoCity","address":"1 Harbourfront Walk #B2-06B, VivoCity S(098585)","phone":"VivoCity","openingHours":"(+65) 6272-4085","chain":"KOI","location":{"SEARCHVAL":"OCBC VIVOCITY FRANK STORE","X":"26774.6765959691","Y":"27425.9215045199","LATITUDE":"1.2643047648315902","LONGITUDE":"103.822308649643","LONGTITUDE":"103.822308649643"}},{"title":"Millenia Walk","address":"9 Raffles Boulevard #01-85, Millenia Walk S(039596)","phone":"Millenia Walk","openingHours":"(+65) 6336-9427","chain":"KOI","location":{"SEARCHVAL":"MILLENIA WALK","X":"30958.309011945497","Y":"30493.422535477202","LATITUDE":"1.2920460530205","LONGITUDE":"103.85990023349899","LONGTITUDE":"103.85990023349899"}},{"title":"Buona Vista","address":"100 North Buona Vista Road #1-02/03, Buona Vista MRT S(139345)","phone":"Buona Vista","openingHours":"(+65) 6779-5643","chain":"KOI","location":{"SEARCHVAL":"BUONA VISTA MRT STATION (EW21)","X":"23207.2578019602","Y":"32171.715098213397","LATITUDE":"1.30722370820442","LONGITUDE":"103.790253514502","LONGTITUDE":"103.790253514502"}},{"title":"Yishun 10","address":"51 Yishun Central 1 #01-02, Yishun 10 Multiplex S(768794)","phone":"Yishun 10","openingHours":"(+65) 6754-7639","chain":"KOI","location":{"SEARCHVAL":"GOLDEN VILLAGE (YISHUN)","X":"28351.084068446402","Y":"45738.3126543015","LATITUDE":"1.4299155420238998","LONGITUDE":"103.836473396124","LONGTITUDE":"103.836473396124"}},{"title":"Westgate Mall","address":"3 Gateway Drive #B1-27, Westgate S(608532)","phone":"Westgate Mall","openingHours":"(+65) 6569-0271","chain":"KOI","location":{"SEARCHVAL":"WESTGATE","X":"17934.0295790741","Y":"35163.9510344267","LATITUDE":"1.33428313049539","LONGITUDE":"103.74287010551201","LONGTITUDE":"103.74287010551201"}},{"title":"Lucky Plaza","address":"304 Orchard Road #01-15, Lucky Plaza S(238863)","phone":"Lucky Plaza","openingHours":"(+65) 6735-8917","chain":"KOI","location":{"SEARCHVAL":"LUCKY PLAZA","X":"28076.409985887796","Y":"31866.4964128342","LATITUDE":"1.30446378974741","LONGITUDE":"103.834005158524","LONGTITUDE":"103.834005158524"}},{"title":"Compass One","address":"1 Sengkang Square #01-19, Compass One Mall S(545078)","phone":"Compass One","openingHours":"(+65) 6881-8470","chain":"KOI","location":{"SEARCHVAL":"OCBC COMPASS ONE BRANCH","X":"34871.4422991602","Y":"41551.8980052639","LATITUDE":"1.39205430537991","LONGITUDE":"103.895063884132","LONGTITUDE":"103.895063884132"}},{"title":"Bedok Mall","address":"311 New Upper Changi Road #01-97, Bedok Mall S(467360)","phone":"Bedok Mall","openingHours":"(+65) 6246-1780","chain":"KOI","location":{"SEARCHVAL":"UOB BEDOK MALL","X":"38678.1713953437","Y":"34112.2887899857","LATITUDE":"1.32477207441096","LONGITUDE":"103.929267654625","LONGTITUDE":"103.929267654625"}},{"title":"Tampines","address":"BLK 510 Tampines Center 1 #01-250 S(520510)","phone":"Tampines","openingHours":"(+65) 6789-9106","chain":"KOI","location":{"SEARCHVAL":"510 TAMPINES CENTRAL 1 SINGAPORE 520510","X":"40368.5656427937","Y":"37432.8194499519","LATITUDE":"1.35480107982355","LONGITUDE":"103.944458085324","LONGTITUDE":"103.944458085324"}},{"title":"Clementi","address":"BLK 443 Clementi Ave 3 #01-67 S(120443)","phone":"Clementi","openingHours":"(+65) 6773-1476","chain":"KOI","location":{"SEARCHVAL":"HDB-CLEMENTI","X":"20286.6623391714","Y":"32944.3462746423","LATITUDE":"1.31421051581741","LONGITUDE":"103.764010395621","LONGTITUDE":"103.764010395621"}},{"title":"Bugis+","address":"201 Victoria Street #01-01 Bugis+ S(188067)","phone":"Bugis+","openingHours":"(+65) 6884-6817","chain":"KOI","location":{"SEARCHVAL":"BUGIS JUNCTION","X":"30411.240752433398","Y":"31301.644199488703","LATITUDE":"1.29935537194421","LONGITUDE":"103.85498465676201","LONGTITUDE":"103.85498465676201"}},{"title":"Marine Parade","address":"83 Marine Parade Central #01-590 S(440083)","phone":"Marine Parade","openingHours":"(+65) 6440-4869","chain":"KOI","location":{"SEARCHVAL":"MARINE PARADE PROMENADE","X":"36097.0850956161","Y":"31656.0762957577","LATITUDE":"1.30255976796098","LONGITUDE":"103.90607458727","LONGTITUDE":"103.90607458727"}},{"title":"Toa Payoh","address":"BLK 490 Lorong 6 Toa Payoh #01-23 S(310490)","phone":"Toa Payoh","openingHours":"(+65) 6256-1169","chain":"KOI","location":{"SEARCHVAL":"NATIONAL YOUTH COUNCIL","X":"29694.746394684502","Y":"34974.5658342429","LATITUDE":"1.33257202428238","LONGITUDE":"103.848546835662","LONGTITUDE":"103.848546835662"}},{"title":"Tanjong Pagar Plaza","address":"Blk 1 Tanjong Pagar Plaza, #01-38 S(082001)","phone":"Tanjong Pagar Plaza","openingHours":"(+65) 6816-0766","chain":"KOI","location":{"SEARCHVAL":"MULTI STOREY CAR PARK","X":"29014.4293299187","Y":"28684.5123935789","LATITUDE":"1.27568702788787","LONGITUDE":"103.842433597114","LONGTITUDE":"103.842433597114"}},{"title":"Peranakan Place","address":"180A Orchard Road, Peranakan Place, S(238845)","phone":"Peranakan Place","openingHours":"(+65) 6974-2656","chain":"KOI","location":{"SEARCHVAL":"PERANAKAN PLACE","X":"28663.2625134652","Y":"31527.8517033886","LATITUDE":"1.30140119930029","LONGITUDE":"103.839278294734","LONGTITUDE":"103.839278294734"}},{"title":"Great World City","address":"1 Kim Seng Promenade, #01-125 Great World City, S(237994)","phone":"Great World City","openingHours":"(+65) 6920-2558","chain":"KOI","location":{"SEARCHVAL":"DBS GREAT WORLD CITY","X":"27850.5676046759","Y":"30651.519085263797","LATITUDE":"1.29347596207044","LONGITUDE":"103.831975865363","LONGTITUDE":"103.831975865363"}},{"title":"Plaza Singapura (Basement)","address":"68 Orchard Road #B2-11 Plaza Singapura, S(238839)","phone":"Plaza Singapura (Basement)","openingHours":"(+65) 6815-1198","chain":"KOI","location":{"SEARCHVAL":"DBS PLAZA SINGAPURA BRANCH","X":"29307.5238112044","Y":"31463.667293731098","LATITUDE":"1.3008207176923898","LONGITUDE":"103.84506727293801","LONGTITUDE":"103.84506727293801"}},{"title":"Ang Mo Kio Hub","address":"53 Ang Mo Kio Ave 3 #01-44, S(569933)","phone":"Ang Mo Kio Hub","openingHours":"(+65) 6815-2976","chain":"KOI","location":{"SEARCHVAL":"OCBC AMK HUB","X":"29685.508303374103","Y":"39030.794586103395","LATITUDE":"1.36925511350953","LONGITUDE":"103.848464053097","LONGTITUDE":"103.848464053097"}},{"title":"Tiong Bahru Plaza","address":"302 Tiong Bahru Road #01-155, S(168732)","phone":"Tiong Bahru Plaza","openingHours":"(+65) 6816-0728","chain":"KOI","location":{"SEARCHVAL":"GOLDEN VILLAGE (TIONG BAHRU)","X":"27289.56998879","Y":"29876.1129400879","LATITUDE":"1.2864634535506498","LONGITUDE":"103.82693507969401","LONGTITUDE":"103.82693507969401"}},{"title":"Takashimaya","address":"391 Orchard Road #B2-37C, Takashimaya Shopping Centre, Ngee Ann City, S (238872)","phone":"Takashimaya","openingHours":"(+65) 6815-5488","chain":"KOI","location":{"SEARCHVAL":"DBS NGEE ANN CITY BRANCH","X":"28151.0824940456","Y":"31640.966003728998","LATITUDE":"1.30242417189412","LONGITUDE":"103.83467612472299","LONGTITUDE":"103.83467612472299"}},{"title":"Raffles City","address":"252 North Bridge Road #B1-71,Singapore 179103, Raffles City Shopping Centre, S(179103)","phone":"Raffles City","openingHours":"(+65) 6931-1040","chain":"KOI","location":{"SEARCHVAL":"RAFFLES CITY TOWER","X":"30227.3001874285","Y":"30717.926103232403","LATITUDE":"1.29407644483073","LONGITUDE":"103.853331827088","LONGTITUDE":"103.853331827088"}},{"title":"HarbourFront Centre","address":"1 Maritime Square #01-67A, Harbourfront Centre S(099253)","phone":"HarbourFront Centre","openingHours":"(+65) 6920-6729","chain":"KOI","location":{"SEARCHVAL":"OCBC MARITIME SQUARE","X":"26540.975102517797","Y":"27402.052596312","LATITUDE":"1.2640888929443799","LONGITUDE":"103.820208766742","LONGTITUDE":"103.820208766742"}},{"title":"Novena Square","address":"238 Thomson Road #01-61, Novena Square S(307683)","phone":"Novena Square","openingHours":"(+65) 6266-1857","chain":"KOI","location":{"SEARCHVAL":"VELOCITY @ NOVENA SQUARE","X":"29192.4729349958","Y":"33561.1363200918","LATITUDE":"1.31978949204526","LONGITUDE":"103.84403356919901","LONGTITUDE":"103.84403356919901"}},{"title":"The Arcade","address":"11 Collyer Quay #01-12, The Arcade S(049317)","phone":"The Arcade","openingHours":"(+65) 6221-1560","chain":"KOI","location":{"SEARCHVAL":"DBS COLLYER QUAY EBC 1","X":"30085.6390922638","Y":"29561.6857049502","LATITUDE":"1.28361982304995","LONGITUDE":"103.852058865041","LONGTITUDE":"103.852058865041"}},{"title":"Chinatown Point","address":"133 New Bridge Road #01-39, Chinatown Point S(059413)","phone":"Chinatown Point","openingHours":"(+65) 6221-2140","chain":"KOI","location":{"SEARCHVAL":"DBS NTUC CHINATOWN POINT","X":"29293.6914939852","Y":"29734.767994012702","LATITUDE":"1.28518516098543","LONGITUDE":"103.84494291227399","LONGTITUDE":"103.84494291227399"}},{"title":"Ion Orchard","address":"2 Orchard Turn # B4-35, ION Orchard S(238801)","phone":"Ion Orchard","openingHours":"(+65) 6509-3084","chain":"KOI","location":{"SEARCHVAL":"ORCHARD ROAD","X":"27881.2886395734","Y":"31826.03356684","LATITUDE":"1.3040978578789901","LONGITUDE":"103.83225190246799","LONGTITUDE":"103.83225190246799"}},{"title":"CityLink Mall","address":"1 Raffles Link #B1-66, CityLink Mall S(039393)","phone":"CityLink Mall","openingHours":"(+65) 6327-9095","chain":"KOI","location":{"SEARCHVAL":"CITYLINK MALL","X":"30375.4462586408","Y":"30530.189115833502","LATITUDE":"1.2923786067095901","LONGITUDE":"103.85466296886801","LONGTITUDE":"103.85466296886801"}},{"title":"City Square Mall","address":"180 Kitchener Road #B1-K6, City Square Mall S(208539)","phone":"City Square Mall","openingHours":"(+65) 6634-9361","chain":"KOI","location":{"SEARCHVAL":"CITY SQUARE MALL","X":"30611.1188334608","Y":"32642.0430317223","LATITUDE":"1.3114774495223402","LONGITUDE":"103.85678076298599","LONGTITUDE":"103.85678076298599"}},{"title":"Plaza Singapura","address":"68 Orchard Rd #01-68, Plaza Singapura S(238839)","phone":"Plaza Singapura","openingHours":"(+65) 6238-0365","chain":"KOI","location":{"SEARCHVAL":"DBS PLAZA SINGAPURA BRANCH","X":"29307.5238112044","Y":"31463.667293731098","LATITUDE":"1.3008207176923898","LONGITUDE":"103.84506727293801","LONGTITUDE":"103.84506727293801"}},{"title":"313@Somerset","address":"313 Orchard Rd #B3-51, 313@Somerset S(238895)","phone":"313@Somerset","openingHours":"(+65) 6835-9476","chain":"KOI","location":{"SEARCHVAL":"OCBC 313@SOMERSET","X":"28548.4434900125","Y":"31484.215289570402","LATITUDE":"1.30100656917243","LONGITUDE":"103.838246592796","LONGTITUDE":"103.838246592796"}},{"title":"VivoCity","address":"1 Harbourfront Walk #B2-06B, VivoCity S(098585)","phone":"VivoCity","openingHours":"(+65) 6272-4085","chain":"KOI","location":{"SEARCHVAL":"OCBC VIVOCITY FRANK STORE","X":"26774.6765959691","Y":"27425.9215045199","LATITUDE":"1.2643047648315902","LONGITUDE":"103.822308649643","LONGTITUDE":"103.822308649643"}},{"title":"Millenia Walk","address":"9 Raffles Boulevard #01-85, Millenia Walk S(039596)","phone":"Millenia Walk","openingHours":"(+65) 6336-9427","chain":"KOI","location":{"SEARCHVAL":"MILLENIA WALK","X":"30958.309011945497","Y":"30493.422535477202","LATITUDE":"1.2920460530205","LONGITUDE":"103.85990023349899","LONGTITUDE":"103.85990023349899"}},{"title":"Lucky Plaza","address":"304 Orchard Road #01-15, Lucky Plaza S(238863)","phone":"Lucky Plaza","openingHours":"(+65) 6735-8917","chain":"KOI","location":{"SEARCHVAL":"LUCKY PLAZA","X":"28076.409985887796","Y":"31866.4964128342","LATITUDE":"1.30446378974741","LONGITUDE":"103.834005158524","LONGTITUDE":"103.834005158524"}},{"title":"Bugis+","address":"201 Victoria Street #01-01 Bugis+ S(188067)","phone":"Bugis+","openingHours":"(+65) 6884-6817","chain":"KOI","location":{"SEARCHVAL":"BUGIS JUNCTION","X":"30411.240752433398","Y":"31301.644199488703","LATITUDE":"1.29935537194421","LONGITUDE":"103.85498465676201","LONGTITUDE":"103.85498465676201"}},{"title":"Toa Payoh","address":"BLK 490 Lorong 6 Toa Payoh #01-23 S(310490)","phone":"Toa Payoh","openingHours":"(+65) 6256-1169","chain":"KOI","location":{"SEARCHVAL":"NATIONAL YOUTH COUNCIL","X":"29694.746394684502","Y":"34974.5658342429","LATITUDE":"1.33257202428238","LONGITUDE":"103.848546835662","LONGTITUDE":"103.848546835662"}},{"title":"Paya Lebar Quarter","address":"10 Paya Lebar Road #B1-02, Paya Lebar Quarter S(409057)","phone":"Paya Lebar Quarter","openingHours":"(+65) 6974-3428","chain":"KOI","location":{"SEARCHVAL":"PLQ MALL","X":"34623.288085627406","Y":"33306.0965337455","LATITUDE":"1.3174823105835802","LONGITUDE":"103.892832205276","LONGTITUDE":"103.892832205276"}},{"title":"Downtown East","address":"1 Pasir Ris Close #01-341, Downtown East, S(519599)","phone":"Downtown East","openingHours":"(+65) 6459-1518","chain":"KOI","location":{"SEARCHVAL":"COSTA SANDS RESORT (DOWNTOWN EAST)","X":"41591.1226485772","Y":"40122.7405808773","LATITUDE":"1.3791271787801103","LONGITUDE":"103.955444758145","LONGTITUDE":"103.955444758145"}},{"title":"Tampines Mall","address":"4 Tampines Central 5 #02-K3B, Tampines Mall S(529510)","phone":"Tampines Mall","openingHours":"(+65) 6443-6502","chain":"KOI","location":{"SEARCHVAL":"UOB TAMPINES MALL","X":"40360.774603248596","Y":"37197.4314849842","LATITUDE":"1.3526723221023402","LONGITUDE":"103.944387981063","LONGTITUDE":"103.944387981063"}},{"title":"Eastpoint Mall","address":"3 Simei Street 6 #01-08, Eastpoint Mall S(528833)","phone":"Eastpoint Mall","openingHours":"(+65) 6443-5874","chain":"KOI","location":{"SEARCHVAL":"DBS EASTPOINT BR 1","X":"41324.8995989487","Y":"36093.9015998933","LATITUDE":"1.3426919975060099","LONGITUDE":"103.953050756306","LONGTITUDE":"103.953050756306"}},{"title":"White Sands","address":"1 Pasir Ris Central St.3 #01-32, White Sands mall S(518457)","phone":"White Sands","openingHours":"(+65) 6384-5016","chain":"KOI","location":{"SEARCHVAL":"WHITE SANDS","X":"40957.3163058981","Y":"39378.7373477351","LATITUDE":"1.37239898072244","LONGITUDE":"103.949749226457","LONGTITUDE":"103.949749226457"}},{"title":"Tampines MRT","address":"20 Tampines Central 1 #01-08, Tampines MRT S(529538)","phone":"Tampines MRT","openingHours":"(+65) 6587-4719","chain":"KOI","location":{"SEARCHVAL":"TAMPINES MRT STATION (EW2)","X":"40444.9846136123","Y":"37267.0103757698","LATITUDE":"1.3533015326595301","LONGITUDE":"103.945144689278","LONGTITUDE":"103.945144689278"}},{"title":"Paya Lebar","address":"30 Paya Lebar Rd. #01-04, Paya Lebar MRT S(409006)","phone":"Paya Lebar","openingHours":"(+65) 6743-1200","chain":"KOI","location":{"SEARCHVAL":"PAYA LEBAR MRT STATION (EW8)","X":"34648.6772941211","Y":"33375.7340536173","LATITUDE":"1.31811208187581","LONGITUDE":"103.893060355199","LONGTITUDE":"103.893060355199"}},{"title":"Changi City Point","address":"5 Changi Business Park Central 1 #B1-18, Changi City Point S(486038)","phone":"Changi City Point","openingHours":"(+65) 6636-0347","chain":"KOI","location":{"SEARCHVAL":"CHANGI CITY POINT","X":"42423.026951625","Y":"35136.8611284625","LATITUDE":"1.3340363790270802","LONGITUDE":"103.96291761553101","LONGTITUDE":"103.96291761553101"}},{"title":"Changi Airport T3","address":"65 Airport Boulevard #B2-12, Changi Airport Terminal 3 S(819663)","phone":"Changi Airport T3","openingHours":"(+65) 6543-2080","chain":"KOI","location":{"SEARCHVAL":"CHANGI AIRPORT TERMINAL 3 BUILDING","X":"45048.9755487796","Y":"37644.8299679644","LATITUDE":"1.35671611225461","LONGITUDE":"103.986514607903","LONGTITUDE":"103.986514607903"}},{"title":"Bedok Mall","address":"311 New Upper Changi Road #01-97, Bedok Mall S(467360)","phone":"Bedok Mall","openingHours":"(+65) 6246-1780","chain":"KOI","location":{"SEARCHVAL":"UOB BEDOK MALL","X":"38678.1713953437","Y":"34112.2887899857","LATITUDE":"1.32477207441096","LONGITUDE":"103.929267654625","LONGTITUDE":"103.929267654625"}},{"title":"Tampines","address":"BLK 510 Tampines Center 1 #01-250 S(520510)","phone":"Tampines","openingHours":"(+65) 6789-9106","chain":"KOI","location":{"SEARCHVAL":"510 TAMPINES CENTRAL 1 SINGAPORE 520510","X":"40368.5656427937","Y":"37432.8194499519","LATITUDE":"1.35480107982355","LONGITUDE":"103.944458085324","LONGTITUDE":"103.944458085324"}},{"title":"Marine Parade","address":"83 Marine Parade Central #01-590 S(440083)","phone":"Marine Parade","openingHours":"(+65) 6440-4869","chain":"KOI","location":{"SEARCHVAL":"MARINE PARADE PROMENADE","X":"36097.0850956161","Y":"31656.0762957577","LATITUDE":"1.30255976796098","LONGITUDE":"103.90607458727","LONGTITUDE":"103.90607458727"}},{"title":"Junction 8","address":"Junction 8 Shopping Centre, 9 Bishan Place, #02-26 S(579837)","phone":"Junction 8","openingHours":"(+65) 6258-1729","chain":"KOI","location":{"SEARCHVAL":"DBS BISHAN BRANCH","X":"29687.0319028711","Y":"36928.1372943874","LATITUDE":"1.3502394308637","LONGITUDE":"103.848477625201","LONGTITUDE":"103.848477625201"}},{"title":"Sun Plaza Mall","address":"30 Sembawang Drive #02-09 Sun Plaza S(757713)","phone":"Sun Plaza Mall","openingHours":"(+65) 6957-6488","chain":"KOI","location":{"SEARCHVAL":"DBS NTUC SUN PLAZA","X":"26465.5651452048","Y":"47760.161058181904","LATITUDE":"1.44820036592785","LONGITUDE":"103.819530140823","LONGTITUDE":"103.819530140823"}},{"title":"North Point City","address":"1 Northpoint Drive, South Wing of Northpoint City #B2-157 S(768019)","phone":"North Point City","openingHours":"(+65) 6957-4203","chain":"KOI","location":{"SEARCHVAL":"NORTHPOINT CITY","X":"28308.6518360926","Y":"45530.4659514707","LATITUDE":"1.42803585211788","LONGITUDE":"103.836092100712","LONGTITUDE":"103.836092100712"}},{"title":"Woodlands MRT","address":"30 Woodlands Avenue 2 #01-16, Woodlands MRT S(738343)","phone":"Woodlands MRT","openingHours":"(+65) 6362-1608","chain":"KOI","location":{"SEARCHVAL":"WOODLANDS MRT STATION (NS9)","X":"22741.5981903831","Y":"46501.7861009184","LATITUDE":"1.43681962961519","LONGITUDE":"103.786066799253","LONGTITUDE":"103.786066799253"}},{"title":"Bishan MRT","address":"200 Bishan Road #01-05, Bishan MRT S(579827)","phone":"Bishan MRT","openingHours":"(+65) 6259-1432","chain":"KOI","location":{"SEARCHVAL":"BISHAN MRT STATION (NS17)","X":"29649.898807498597","Y":"36994.433016980096","LATITUDE":"1.3508389878474","LONGITUDE":"103.848143964542","LONGTITUDE":"103.848143964542"}},{"title":"Ang Mo Kio MRT","address":"2450 Ang Mo Kio Ave8 #01-05, Ang Mo Kio MRT S(569811)","phone":"Ang Mo Kio MRT","openingHours":"(+65) 6459-3763","chain":"KOI","location":{"SEARCHVAL":"ANG MO KIO MRT STATION (NS16)","X":"29807.265444858902","Y":"39105.7720139287","LATITUDE":"1.3699331753644401","LONGITUDE":"103.849558130943","LONGTITUDE":"103.849558130943"}},{"title":"Yishun 10","address":"51 Yishun Central 1 #01-02, Yishun 10 Multiplex S(768794)","phone":"Yishun 10","openingHours":"(+65) 6754-7639","chain":"KOI","location":{"SEARCHVAL":"GOLDEN VILLAGE (YISHUN)","X":"28351.084068446402","Y":"45738.3126543015","LATITUDE":"1.4299155420238998","LONGITUDE":"103.836473396124","LONGTITUDE":"103.836473396124"}},{"title":"J Cube","address":"2 Jurong East Central 1, #01-03 JCube, S(609731)","phone":"J Cube","openingHours":"(+65) 6974-2652","chain":"KOI","location":{"SEARCHVAL":"DBS JCUBE","X":"17649.945089573997","Y":"35051.2179290708","LATITUDE":"1.33326351781135","LONGITUDE":"103.74031748518601","LONGTITUDE":"103.74031748518601"}},{"title":"Jurong East MRT","address":"10 Jurong East Street 12, #01-09, S(609690)","phone":"Jurong East MRT","openingHours":"(+65) 6931-1044","chain":"KOI","location":{"SEARCHVAL":"JURONG EAST MRT STATION (EW24 / NS1)","X":"17869.0806001499","Y":"35038.9471976683","LATITUDE":"1.33315261987296","LONGITUDE":"103.742286544006","LONGTITUDE":"103.742286544006"}},{"title":"Choa Chu Kang MRT","address":"10 Choa Chu Kang Avenue 4 #01-04, Choa Chu Kang MRT S(689810)","phone":"Choa Chu Kang MRT","openingHours":"(+65) 6760-0617","chain":"KOI","location":{"SEARCHVAL":"CHOA CHU KANG MRT STATION (NS4)","X":"18101.2472041473","Y":"40812.1216052435","LATITUDE":"1.38536316540227","LONGITUDE":"103.744370779756","LONGTITUDE":"103.744370779756"}},{"title":"Hillion Mall","address":"17 Petir Road #B2-53, Hillion Mall S(678278)","phone":"Hillion Mall","openingHours":"(+65) 6252-1041","chain":"KOI","location":{"SEARCHVAL":"BUKIT PANJANG INTEGRATED TRANSPORT HUB","X":"20156.9241962768","Y":"40045.5291034412","LATITUDE":"1.37843100800214","LONGITUDE":"103.762842789877","LONGTITUDE":"103.762842789877"}},{"title":"Jurong Point","address":"1 Jurong West Central 2 #02-41C, Jurong Point S(648886)","phone":"Jurong Point","openingHours":"(+65) 6266-0287","chain":"KOI","location":{"SEARCHVAL":"JURONG POINT","X":"13907.0305282855","Y":"35735.677712231896","LATITUDE":"1.3394520043632099","LONGITUDE":"103.706685012926","LONGTITUDE":"103.706685012926"}},{"title":"Yew Tee MRT","address":"61 Choa Chu Kang Drive #01-03, Yew Tee MRT S(689715)","phone":"Yew Tee MRT","openingHours":"(+65) 6765-7184","chain":"KOI","location":{"SEARCHVAL":"YEW TEE MRT STATION (NS5)","X":"18438.9791220082","Y":"42158.012381514505","LATITUDE":"1.3975350176262302","LONGITUDE":"103.74740511433599","LONGTITUDE":"103.74740511433599"}},{"title":"Bukit Batok MRT","address":"10 Bukit Batok Central #01-07, Bukit Batok MRT S(659958)","phone":"Bukit Batok MRT","openingHours":"(+65) 6563-1496","chain":"KOI","location":{"SEARCHVAL":"BUKIT BATOK MRT STATION (NS2)","X":"18679.3541307775","Y":"36795.014101265","LATITUDE":"1.3490341085881201","LONGITUDE":"103.74956676412901","LONGTITUDE":"103.74956676412901"}},{"title":"Boon Lay","address":"301 Boon Lay way #01-34, Boon Lay MRT S(649846)","phone":"Boon Lay","openingHours":"(+65) 6795-6342","chain":"KOI","location":{"SEARCHVAL":"BOON LAY MRT STATION (EW27)","X":"13837.982719541498","Y":"35641.9191215821","LATITUDE":"1.3386040546984599","LONGITUDE":"103.706064622772","LONGTITUDE":"103.706064622772"}},{"title":"Buona Vista","address":"100 North Buona Vista Road #1-02/03, Buona Vista MRT S(139345)","phone":"Buona Vista","openingHours":"(+65) 6779-5643","chain":"KOI","location":{"SEARCHVAL":"BUONA VISTA MRT STATION (EW21)","X":"23207.2578019602","Y":"32171.715098213397","LATITUDE":"1.30722370820442","LONGITUDE":"103.790253514502","LONGTITUDE":"103.790253514502"}},{"title":"Westgate Mall","address":"3 Gateway Drive #B1-27, Westgate S(608532)","phone":"Westgate Mall","openingHours":"(+65) 6569-0271","chain":"KOI","location":{"SEARCHVAL":"WESTGATE","X":"17934.0295790741","Y":"35163.9510344267","LATITUDE":"1.33428313049539","LONGITUDE":"103.74287010551201","LONGTITUDE":"103.74287010551201"}},{"title":"Clementi","address":"BLK 443 Clementi Ave 3 #01-67 S(120443)","phone":"Clementi","openingHours":"(+65) 6773-1476","chain":"KOI","location":{"SEARCHVAL":"HDB-CLEMENTI","X":"20286.6623391714","Y":"32944.3462746423","LATITUDE":"1.31421051581741","LONGITUDE":"103.764010395621","LONGTITUDE":"103.764010395621"}},{"title":"Waterway Point","address":"83 Punggol Central #B1-K2, Waterway Point S(828761)","phone":"Waterway Point","openingHours":"(+65) 6385-9396","chain":"KOI","location":{"SEARCHVAL":"DBS WATERWAY POINT BRANCH","X":"35670.420423625","Y":"43136.215863945","LATITUDE":"1.4063820961698401","LONGITUDE":"103.902243744842","LONGTITUDE":"103.902243744842"}},{"title":"Seletar Mall","address":"33 Sengkang West Ave #B1-K6, Seletar Mall S(797653)","phone":"Seletar Mall","openingHours":"(+65) 6702-4836","chain":"KOI","location":{"SEARCHVAL":"DBS SELETAR MALL ABM","X":"32776.2588082524","Y":"41479.152992576404","LATITUDE":"1.39139684608919","LONGITUDE":"103.876237007474","LONGTITUDE":"103.876237007474"}},{"title":"Hougang Mall","address":"90 Hougang Ave 10, #01-15 Singapore S(538766)","phone":"Hougang Mall","openingHours":"(+65) 6343-4234","chain":"KOI","location":{"SEARCHVAL":"HOUGANG MALL","X":"34722.3700276464","Y":"39382.686895858504","LATITUDE":"1.37243678271745","LONGITUDE":"103.893723857613","LONGTITUDE":"103.893723857613"}},{"title":"NEX","address":"23 Serangoon Central #B1-07, NEX Mall S(556083)","phone":"NEX","openingHours":"(+65) 6634-8623","chain":"KOI","location":{"SEARCHVAL":"STANDARD CHARTERED BANK NEX SERANGOON","X":"32367.720299918197","Y":"36988.3272987679","LATITUDE":"1.35078349664874","LONGITUDE":"103.872565308236","LONGTITUDE":"103.872565308236"}},{"title":"Compass One","address":"1 Sengkang Square #01-19, Compass One Mall S(545078)","phone":"Compass One","openingHours":"(+65) 6881-8470","chain":"KOI","location":{"SEARCHVAL":"OCBC COMPASS ONE BRANCH","X":"34871.4422991602","Y":"41551.8980052639","LATITUDE":"1.39205430537991","LONGITUDE":"103.895063884132","LONGTITUDE":"103.895063884132"}},{"title":"LiHO @ City Square Mall","address":"City Square Mall\n                                             \n                                                                                        #B2-K3/K4,  180 Kitchener Road, 208539","phone":"Tel : 6509 3803","chain":"LiHO","location":{"SEARCHVAL":"CITY SQUARE MALL","X":"30611.1188334608","Y":"32642.0430317223","LATITUDE":"1.3114774495223402","LONGITUDE":"103.85678076298599","LONGTITUDE":"103.85678076298599"}},{"title":"LiHO @ Tanjong Pagar MRT Xchange","address":"Tanjong Pagar MRT Station (EW15)\n                                             \n                                                                                        #B1-08,  120 Maxwell Road, 069119","phone":"Tel : 6221 4338","chain":"LiHO","location":{"SEARCHVAL":"TANJONG PAGAR MRT STATION (EW15)","X":"29380.7567437878","Y":"28781.188333572798","LATITUDE":"1.2765613173725","LONGITUDE":"103.845725186759","LONGTITUDE":"103.845725186759"}},{"title":"LiHO @ 100 AM","address":"100 AM\n                                             \n                                                                                        #02-25,  100 Tras Street, 079027","phone":"Tel : 6694 8932","chain":"LiHO","location":{"SEARCHVAL":"AMARA SINGAPORE","X":"29138.945004635498","Y":"28601.329587779903","LATITUDE":"1.27493474750942","LONGITUDE":"103.843552412915","LONGTITUDE":"103.843552412915"}},{"title":"LiHO @ Alexandra Retail Centre","address":"Alexandra Retail Centre (ARC)\n                                             \n                                                                                        #01-10,  460 Alexandra Road, 119963","phone":"Tel : 6272 0211","chain":"LiHO","location":{"SEARCHVAL":"DBS NTUC ALEXANDRA RETAIL CENTRE","X":"24444.9339985587","Y":"28480.589662423397","LATITUDE":"1.2738426388845099","LONGITUDE":"103.801375038176","LONGTITUDE":"103.801375038176"}},{"title":"LiHO @ west Coast Plaza","address":"West Coast Plaza\n                                             \n                                                                                        #B1-57,  154 West Coast Road, 127371","phone":"Tel : 6776 0073","chain":"LiHO","location":{"SEARCHVAL":"DBS WEST COAST PLAZA","X":"20519.6017150618","Y":"31769.5597141609","LATITUDE":"1.30358622534993","LONGITUDE":"103.76610375397","LONGTITUDE":"103.76610375397"}},{"title":"LiHO @ Anchorpoint","address":"Anchorpoint Shopping Centre\n                                             \n                                                                                        #%u200EB1%u202C-47,  370 Alexandra Road, 159953","phone":"Tel : 6474 1927","chain":"LiHO","location":{"SEARCHVAL":"UOB ANCHORPOINT","X":"24849.490904973798","Y":"30114.0021906942","LATITUDE":"1.2886146900321398","LONGITUDE":"103.80500996431999","LONGTITUDE":"103.80500996431999"}},{"title":"LiHO @ Raffles City Shopping Centre","address":"Raffles City Shopping Centre\n                                             \n                                                                                        #B1-71,  252 North Bridge Road, 179103","phone":"Tel : 6336 9282","chain":"LiHO","location":{"SEARCHVAL":"RAFFLES CITY TOWER","X":"30227.3001874285","Y":"30717.926103232403","LATITUDE":"1.29407644483073","LONGITUDE":"103.853331827088","LONGTITUDE":"103.853331827088"}},{"title":"LiHO @ Burlington","address":"Burlington Square\n                                             \n                                                                                         #01-53,  175 Bencoolen Street, 189649","phone":"Tel : 6884 8933","chain":"LiHO","location":{"SEARCHVAL":"BURLINGTON SQUARE","X":"30146.373799279303","Y":"31608.2291211169","LATITUDE":"1.30212803728952","LONGITUDE":"103.852604729752","LONGTITUDE":"103.852604729752"}},{"title":"LiHO @ Far East Plaza","address":"Far East Plaza\n                                             \n                                                                                        #01-16F,  14 Scotts Road, 228213","phone":"Tel : 6334 5465","chain":"LiHO","location":{"SEARCHVAL":"DBS FAR EAST PLAZA","X":"28055.6297135428","Y":"32180.628414057202","LATITUDE":"1.3073046889106201","LONGITUDE":"103.83381843863899","LONGTITUDE":"103.83381843863899"}},{"title":"LiHO @ Great World City","address":"Great World City\n                                             \n                                                                                        #B1-K1,  1 Kim Seng Promenade, 237994","phone":"Tel : 6836 6061","chain":"LiHO","location":{"SEARCHVAL":"DBS GREAT WORLD CITY","X":"27850.5676046759","Y":"30651.519085263797","LATITUDE":"1.29347596207044","LONGITUDE":"103.831975865363","LONGTITUDE":"103.831975865363"}},{"title":"LiHO @ Plaza Singapura","address":"Plaza Singapura\n                                             \n                                                                                        #B1-K7,  68 Orchard Road, 238839","phone":"Tel : 6238 8289","chain":"LiHO","location":{"SEARCHVAL":"DBS PLAZA SINGAPURA BRANCH","X":"29307.5238112044","Y":"31463.667293731098","LATITUDE":"1.3008207176923898","LONGITUDE":"103.84506727293801","LONGTITUDE":"103.84506727293801"}},{"title":"LiHO @ Orchard Gateway","address":"Orchard Gateway\n                                             \n                                                                                        #B2-13,  277 Orchard Road, 238858","phone":"Tel : 6702 6892","chain":"LiHO","location":{"SEARCHVAL":"LIBRARY@ORCHARD","X":"28712.4586413363","Y":"31417.495179578702","LATITUDE":"1.30040317266734","LONGITUDE":"103.83972034182","LONGTITUDE":"103.83972034182"}},{"title":"LiHO @ Wisma Atria","address":"Wisma Atria\n                                             \n                                                                                        #B1-03,  435 Orchard Road, 238877","phone":null,"chain":"LiHO","location":{"SEARCHVAL":"WISMA ATRIA","X":"27985.6449896311","Y":"31781.919584775296","LATITUDE":"1.3036989067941298","LONGITUDE":"103.83318959278499","LONGTITUDE":"103.83318959278499"}},{"title":"LiHO @ United Square","address":"United Square\n                                             \n                                                                                        #B1-40,  101 Thomson Road, 307591","phone":"Tel : 6254 0811","chain":"LiHO","location":{"SEARCHVAL":"UNITED SQUARE","X":"29147.4239446456","Y":"33309.2711609509","LATITUDE":"1.31751171429201","LONGITUDE":"103.843628771215","LONGTITUDE":"103.843628771215"}},{"title":"LiHO @ Goldhill Centre","address":"Goldhill Centre\n                                             \n                                                                                        #161,  151 Thomson Road, 307606","phone":"Tel : 6259 6138","chain":"LiHO","location":{"SEARCHVAL":"GOLDHILL SHOPPING CENTRE","X":"29177.4423083011","Y":"33376.806387742996","LATITUDE":"1.31812247787872","LONGITUDE":"103.843898504165","LONGTITUDE":"103.843898504165"}},{"title":"LiHO @ Toa Payoh","address":"HDB Toa Payoh Central\n                                             \n                                                                                        #01-530,  184 Toa Payoh Central, 310184","phone":"Tel : 6324 7134","chain":"LiHO","location":{"SEARCHVAL":"TOA PAYOH CENTRAL","X":"29820.601730360697","Y":"34976.5553185437","LATITUDE":"1.33259000918315","LONGITUDE":"103.849677717253","LONGTITUDE":"103.849677717253"}},{"title":"LiHO @ Eunos MRT","address":"Eunos MRT Station (EW7)\n                                             \n                                                                                        #01-05,  30 Eunos Crescent, 409423","phone":"Tel : 6748 9383","chain":"LiHO","location":{"SEARCHVAL":"EUNOS MRT STATION (EW7)","X":"35779.9889810141","Y":"33560.5857454669","LATITUDE":"1.31978354779207","LONGITUDE":"103.903225812967","LONGTITUDE":"103.903225812967"}},{"title":"LiHO @ 112 Katong","address":"112 Katong\n                                             \n                                                                                        #B1-02A,  112 East Coast Road, 428802","phone":"Tel : 6636 3948","chain":"LiHO","location":{"SEARCHVAL":"UOB 112 KATONG BRANCH","X":"35982.3737051133","Y":"31950.566585112403","LATITUDE":"1.30522306203046","LONGITUDE":"103.90504392893801","LONGTITUDE":"103.90504392893801"}},{"title":"LiHO @ Eastpoint Mall","address":"Eastpoint Mall (East Point)\n                                             \n                                                                                        #01-K1,  3 Simei Street 6, 528833","phone":"Tel : 6636 0893","chain":"LiHO","location":{"SEARCHVAL":"DBS EASTPOINT BR 1","X":"41324.8995989487","Y":"36093.9015998933","LATITUDE":"1.3426919975060099","LONGITUDE":"103.953050756306","LONGTITUDE":"103.953050756306"}},{"title":"LiHO @ Tampires Mall","address":"Tampines Mall\n                                             \n                                                                                        #B1-K5,  4 Tampines Central 5, 529510","phone":"Tel : 6783 9378","chain":"LiHO","location":{"SEARCHVAL":"UOB TAMPINES MALL","X":"40360.774603248596","Y":"37197.4314849842","LATITUDE":"1.3526723221023402","LONGITUDE":"103.944387981063","LONGTITUDE":"103.944387981063"}},{"title":"LiHO @ Tampines MRT","address":"Tampines MRT Station (EW2)\n                                             \n                                                                                        #01-24,  20 Tampines Central 1, 529538","phone":"Tel : 6786 1773","chain":"LiHO","location":{"SEARCHVAL":"TAMPINES MRT STATION (EW2)","X":"40444.9846136123","Y":"37267.0103757698","LATITUDE":"1.3533015326595301","LONGITUDE":"103.945144689278","LONGTITUDE":"103.945144689278"}},{"title":"LiHO @ Hougang 1","address":"Hougang 1\n                                             \n                                                                                        #01-37,  1 Hougang Street 91, 538692","phone":"Tel : 6387 8995","chain":"LiHO","location":{"SEARCHVAL":"DBS HOUGANG 1","X":"33133.8846005546","Y":"39739.8639955707","LATITUDE":"1.3756672834841202","LONGITUDE":"103.87945025110201","LONGTITUDE":"103.87945025110201"}},{"title":"LiHO @ Rivervale Mall","address":"Rivervale Mall\n                                             \n                                                                                        #01-04A,  11 Rivervale Crescent, 545082","phone":null,"chain":"LiHO","location":{"SEARCHVAL":"11 RIVERVALE CRESCENT SINGAPORE 545082","X":"35919.7396821193","Y":"41601.664684627205","LATITUDE":"1.3925041099483502","LONGITUDE":"103.904483668323","LONGTITUDE":"103.904483668323"}},{"title":"LiHO @ Jubilee Square","address":"Jubilee Square\n                                             \n                                                                                        #01-14 ,  61 Ang Mo Kio Avenue 8, 569814","phone":"Tel : 6456 6476","chain":"LiHO","location":{"SEARCHVAL":"61 ANG MO KIO AVENUE 8 SINGAPORE 569814","X":"29608.9038806204","Y":"39310.593462057404","LATITUDE":"1.37178551879646","LONGITUDE":"103.84777572380301","LONGTITUDE":"103.84777572380301"}},{"title":"LiHO @ Thomson Plaza","address":"Thomson Plaza\n                                             \n                                                                                        #01-104,  301 Upper Thomson Road, 574408","phone":"Tel : 6457 7009","chain":"LiHO","location":{"SEARCHVAL":"UOB THOMSON PLAZA","X":"27747.8995119464","Y":"37457.7224032879","LATITUDE":"1.35502885653151","LONGITUDE":"103.831053292454","LONGTITUDE":"103.831053292454"}},{"title":"LiHO @ Junction 8","address":"Junction 8 Shopping Centre\n                                             \n                                                                                        #02-18A,  9 Bishan Place, 579837","phone":"Tel : 6259 9938","chain":"LiHO","location":{"SEARCHVAL":"DBS BISHAN BRANCH","X":"29687.0319028711","Y":"36928.1372943874","LATITUDE":"1.3502394308637","LONGITUDE":"103.848477625201","LONGTITUDE":"103.848477625201"}},{"title":"LiHO @ Clementi","address":"Clementi Arcade\n                                             \n                                                                                         #01-87,  41 Sunset Way, 597071","phone":"Tel : 6778 1323","chain":"LiHO","location":{"SEARCHVAL":"CLEMENTI ARCADE","X":"20676.772942318603","Y":"33977.3658928201","LATITUDE":"1.32355286945811","LONGITUDE":"103.767515486819","LONGTITUDE":"103.767515486819"}},{"title":"LiHO @ IMM","address":"IMM Building\n                                             \n                                                                                        #01-K12,  2 Jurong East Street 21, 609601","phone":"Tel : 6897 2383","chain":"LiHO","location":{"SEARCHVAL":"INTERNATIONAL MERCHANDISE MART","X":"18381.9310856769","Y":"35229.4161430094","LATITUDE":"1.33487531866247","LONGITUDE":"103.74689473166599","LONGTITUDE":"103.74689473166599"}},{"title":"LiHO @ NTUC @ Jurong Point 1","address":"Jurong Point\n                                             \n                                                                                        #B1-09,  1 Jurong West Central 2, 648886","phone":null,"chain":"LiHO","location":{"SEARCHVAL":"JURONG POINT","X":"13907.0305282855","Y":"35735.677712231896","LATITUDE":"1.3394520043632099","LONGITUDE":"103.706685012926","LONGTITUDE":"103.706685012926"}},{"title":"LiHO @ West Mall","address":"West Mall\n                                             \n                                                                                        #B1-04/04A,  1 Bukit Batok Central Link, 658713","phone":"Tel : 6862 5895","chain":"LiHO","location":{"SEARCHVAL":"DBS WEST MALL","X":"18630.0725866565","Y":"36943.330914173304","LATITUDE":"1.35037541626111","LONGITUDE":"103.74912389291","LONGTITUDE":"103.74912389291"}},{"title":"LiHO @ Bukit Batok","address":"Bukit Batok MRT Station (NS2)\n                                             \n                                                                                         #01-07,  10 Bukit Batok Central, 659958","phone":"Tel : 6561 5766","chain":"LiHO","location":{"SEARCHVAL":"BUKIT BATOK MRT STATION (NS2)","X":"18679.3541307775","Y":"36795.014101265","LATITUDE":"1.3490341085881201","LONGITUDE":"103.74956676412901","LONGTITUDE":"103.74956676412901"}},{"title":"LiHO @ Bukit Panjang Plaza","address":"Bukit Panjang Plaza\n                                             \n                                                                                        #01-21,  1 Jelebu Road, 677743","phone":"Tel : 6763 1470","chain":"LiHO","location":{"SEARCHVAL":"CITIBANK BUKIT PANJANG PLAZA","X":"20336.891785739","Y":"40207.3985271305","LATITUDE":"1.3798949436986598","LONGITUDE":"103.76445988779601","LONGTITUDE":"103.76445988779601"}},{"title":"LiHO @ Junction 10","address":"Junction 10\n                                             \n                                                                                        #01-26,  1 Woodlands Road, 677899","phone":"Tel : 6465 2130","chain":"LiHO","location":{"SEARCHVAL":"JUNCTION 10","X":"19845.1920829453","Y":"40285.9414931703","LATITUDE":"1.38060512473526","LONGITUDE":"103.760041583169","LONGTITUDE":"103.760041583169"}},{"title":"LiHO @ Lot One Shoppers' Mall","address":"Lot One Shoppers' Mall\n                                             \n                                                                                        #B1-K30,  21 Choa Chu Kang Avenue 4, 689812","phone":"Tel : 6464 8896","chain":"LiHO","location":{"SEARCHVAL":"LOT ONE, SHOPPERS' MALL","X":"18175.2953746049","Y":"40784.2963688839","LATITUDE":"1.38511154927986","LONGITUDE":"103.745036167492","LONGTITUDE":"103.745036167492"}},{"title":"LiHO @ Woodlands MRT Xchange","address":"Woodlands MRT Station (NS9)\n                                             \n                                                                                        #01-16,  30 Woodlands Avenue 2, 738343","phone":"Tel : 6367 7828","chain":"LiHO","location":{"SEARCHVAL":"WOODLANDS MRT STATION (NS9)","X":"22741.5981903831","Y":"46501.7861009184","LATITUDE":"1.43681962961519","LONGITUDE":"103.786066799253","LONGTITUDE":"103.786066799253"}},{"title":"LiHO @ Hougang Mall","address":"Hougang Mall\n                                             \n                                                                                        #02-24,  90 Hougang Avenue 10, 538766","phone":"Tel : 6343 4226","chain":"LiHO","location":{"SEARCHVAL":"HOUGANG MALL","X":"34722.3700276464","Y":"39382.686895858504","LATITUDE":"1.37243678271745","LONGITUDE":"103.893723857613","LONGTITUDE":"103.893723857613"}},{"title":"LiHO @ The Cathay","address":"The Cathay\n                                             \n                                                                                        #01-10,  2 Handy Road, 229233","phone":"Tel : 6235 0029","chain":"LiHO","location":{"SEARCHVAL":"OCBC THE CATHAY","X":"29610.5160139687","Y":"31282.660089833702","LATITUDE":"1.29918373808485","LONGITUDE":"103.847789785765","LONGTITUDE":"103.847789785765"}},{"title":"LiHO @ JCube","address":"JCube\n                                             \n                                                                                        #02-77,  2 Jurong East Central 1, 609731","phone":"Tel : 6734 8117","chain":"LiHO","location":{"SEARCHVAL":"DBS JCUBE","X":"17649.945089573997","Y":"35051.2179290708","LATITUDE":"1.33326351781135","LONGITUDE":"103.74031748518601","LONGTITUDE":"103.74031748518601"}},{"title":"LiHO @ VivoCity","address":"VivoCity\n                                             \n                                                                                        #01-111,  1 Harbourfront Walk, 098585","phone":"Tel : 6376 9363","chain":"LiHO","location":{"SEARCHVAL":"OCBC VIVOCITY FRANK STORE","X":"26774.6765959691","Y":"27425.9215045199","LATITUDE":"1.2643047648315902","LONGITUDE":"103.822308649643","LONGTITUDE":"103.822308649643"}},{"title":"LiHO @ Square 2","address":"Square 2\n                                             \n                                                                                        #01-172,  10 Sinaran Drive, 307506","phone":"Tel : 6397 6816","chain":"LiHO","location":{"SEARCHVAL":"SQUARE 2","X":"29225.628726503797","Y":"33652.1499981023","LATITUDE":"1.32061258625869","LONGITUDE":"103.844331494859","LONGTITUDE":"103.844331494859"}},{"title":"LiHO @ The Central","address":"The Central\n                                             \n                                                                                        #B1-25,  6 Eu Tong Sen Street, 059817","phone":"Tel : 6222 2627","chain":"LiHO","location":{"SEARCHVAL":"THE CENTRAL","X":"29473.2125398833","Y":"30141.436062024903","LATITUDE":"1.28886291624463","LONGITUDE":"103.846555999235","LONGTITUDE":"103.846555999235"}},{"title":"LiHO @ Ang Mo Kio Hub","address":"Ang Mo Kio Hub\n                                             \n                                                                                        #02-66,  53 Ang Mo Kio Avenue 3, 569933","phone":"Tel : 6481 8103","chain":"LiHO","location":{"SEARCHVAL":"OCBC AMK HUB","X":"29685.508303374103","Y":"39030.794586103395","LATITUDE":"1.36925511350953","LONGITUDE":"103.848464053097","LONGTITUDE":"103.848464053097"}},{"title":"LiHO @ Bedok Point","address":"Bedok Point\n                                             \n                                                                                        #02-30,  799 New Upper Changi Road, 467351","phone":null,"chain":"LiHO","location":{"SEARCHVAL":"BEDOK POINT","X":"39024.9902159367","Y":"34115.503703875496","LATITUDE":"1.32480102552269","LONGITUDE":"103.932384005117","LONGTITUDE":"103.932384005117"}},{"title":"LiHO @ Yew Tee Point","address":"Yew Tee Point\n                                             \n                                                                                        #01-49/50,  21 Choa Chu Kang North 6, 689578","phone":"Tel : 6763 0064","chain":"LiHO","location":{"SEARCHVAL":"YEWTEE POINT","X":"18344.7131188782","Y":"42132.2398592755","LATITUDE":"1.39730190912669","LONGITUDE":"103.746558067665","LONGTITUDE":"103.746558067665"}},{"title":"LiHO @ Orchard Central","address":"Orchard Central\n                                             \n                                                                                         #B1-02,  181 Orchard Road, 238896","phone":"Tel : 6238 7368","chain":"LiHO","location":{"SEARCHVAL":"ORCHARD CENTRAL","X":"28709.345337066803","Y":"31452.9157124311","LATITUDE":"1.3007235035670601","LONGITUDE":"103.839692368177","LONGTITUDE":"103.839692368177"}},{"title":"LiHO @ Bukit Merah","address":"163 Bukit Merah Central Food Centre\n                                             \n                                                                                        #01-3661,  163 Bukit Merah Central, 150163","phone":"Tel : 6278 8913","chain":"LiHO","location":{"SEARCHVAL":"163 BUKIT MERAH CENTRAL SINGAPORE 150163","X":"26177.1487926785","Y":"29590.5865443796","LATITUDE":"1.28388120820459","LONGITUDE":"103.816939544137","LONGTITUDE":"103.816939544137"}},{"title":"LiHO @ Gek Poh Shopping Centre","address":"Gek Poh Shopping Centre\n                                             \n                                                                                        #01-328,  762 Jurong West Street 75, 640762","phone":"Tel : 6790 9189","chain":"LiHO","location":{"SEARCHVAL":"GEK POH SHOPPING CENTRE","X":"12911.559736236899","Y":"36762.9350024741","LATITUDE":"1.3487416466288302","LONGITUDE":"103.69773963000999","LONGTITUDE":"103.69773963000999"}},{"title":"LiHO @ China Square Central","address":"China Square Central\n                                             \n                                                                                        #01-56,  18 Cross Street, 048423","phone":"Tel : 6438 7121","chain":"LiHO","location":{"SEARCHVAL":"CHINA SQUARE CENTRAL","X":"29509.1524108015","Y":"29550.115253617998","LATITUDE":"1.28351521684053","LONGITUDE":"103.846878905539","LONGTITUDE":"103.846878905539"}},{"title":"LiHO @ Marina Bay Sands","address":"The Shoppes at Marina Bay Sands\n                                             \n                                                                                        #01-72,  2 Bayfront Avenue, 018972","phone":"Tel : 6688 7431","chain":"LiHO","location":{"SEARCHVAL":"THE SHOPPES AT MARINA BAY SANDS","X":"30837.2002712078","Y":"29567.4778771177","LATITUDE":"1.28367214668307","LONGITUDE":"103.858811937302","LONGTITUDE":"103.858811937302"}},{"title":"LiHO @ *SCAPE","address":"*SCAPE\n                                             \n                                                                                        #02-10,  2 Orchard Link, 237978","phone":"Tel : 6509 6282","chain":"LiHO","location":{"SEARCHVAL":"SCAPE","X":"28265.1242054086","Y":"31468.609086897202","LATITUDE":"1.30086543586584","LONGITUDE":"103.83570084035699","LONGTITUDE":"103.83570084035699"}},{"title":"LiHO @ Greenwich V","address":"Greenwich V\n                                             \n                                                                                        #01-20,  1 Seletar Road, 807011","phone":"Tel : 6483 1487","chain":"LiHO","location":{"SEARCHVAL":"GREENWICH V","X":"32018.0254457807","Y":"41059.6693391856","LATITUDE":"1.38760330190636","LONGITUDE":"103.869423629864","LONGTITUDE":"103.869423629864"}},{"title":"LiHO @ Changi City Point","address":"Changi City Point\n                                             \n                                                                                        #B1-41,  5 Changi Business Park Central 1, 486038","phone":"Tel : 6604 8489","chain":"LiHO","location":{"SEARCHVAL":"CHANGI CITY POINT","X":"42423.026951625","Y":"35136.8611284625","LATITUDE":"1.3340363790270802","LONGITUDE":"103.96291761553101","LONGTITUDE":"103.96291761553101"}},{"title":"LiHO @ Asia Square Tower 2","address":"Asia Square Tower 2\n                                             \n                                                                                        #02-08,  12 Marina View, 018961","phone":"Tel : 6844 9928","chain":"LiHO","location":{"SEARCHVAL":"ASIA SQUARE TOWER 2","X":"29945.005474073798","Y":"28974.2529401239","LATITUDE":"1.2783072963325401","LONGITUDE":"103.85079518087099","LONGTITUDE":"103.85079518087099"}},{"title":"LiHO @ JEM","address":"Jurong East Mall (JEM)\n                                             \n                                                                                        #B1-30,  50 Jurong Gateway Road, 608549","phone":"Tel : 6734 8068","chain":"LiHO","location":{"SEARCHVAL":"OCBC JEM - FAIRPRICE","X":"17977.6625120742","Y":"34972.5660890937","LATITUDE":"1.33255232950691","LONGITUDE":"103.743262234833","LONGTITUDE":"103.743262234833"}},{"title":"LiHO @ Paya Lebar Square","address":"Paya Lebar Square\n                                             \n                                                                                        #01-50,  60 Paya Lebar Road, 409051","phone":"Tel : 6702 2110","chain":"LiHO","location":{"SEARCHVAL":"DBS PAYA LEBAR SQUARE","X":"34595.3031856539","Y":"33453.4434999209","LATITUDE":"1.31881486980279","LONGITUDE":"103.89258077824199","LONGTITUDE":"103.89258077824199"}},{"title":"LiHO @ The Star Vista","address":"The Star Vista\n                                             \n                                                                                        #01-40,  1 Vista Exchange Green, 138617","phone":"Tel : 6694 4033","chain":"LiHO","location":{"SEARCHVAL":"THE STAR PERFORMING ART CENTRE","X":"22980.337093561","Y":"32130.2658488974","LATITUDE":"1.3068488198863002","LONGITUDE":"103.788214531279","LONGTITUDE":"103.788214531279"}},{"title":"LiHO @ Zhongshan Mall Balestier","address":"Zhongshan Mall Balestier\n                                             \n                                                                                        #01-09,  20 Ah Hood Road, 329984","phone":"Tel : 6339 2825","chain":"LiHO","location":{"SEARCHVAL":"ZHONGSHAN MALL","X":"29473.009895732597","Y":"34352.3619664218","LATITUDE":"1.3269450445695201","LONGITUDE":"103.846554377679","LONGTITUDE":"103.846554377679"}},{"title":"LiHO @ Bedok Mall","address":"Bedok Mall\n                                             \n                                                                                        #B2-K16,  311 New Upper Changi Road, 467360","phone":"Tel : 6702 4025","chain":"LiHO","location":{"SEARCHVAL":"UOB BEDOK MALL","X":"38678.1713953437","Y":"34112.2887899857","LATITUDE":"1.32477207441096","LONGITUDE":"103.929267654625","LONGTITUDE":"103.929267654625"}},{"title":"LiHO @ Admiralty Place","address":"HDB Admiralty Place\n                                             \n                                                                                        #01-15,  677 Woodlands Avenue 6, 730677","phone":"Tel : 6367 1238","chain":"LiHO","location":{"SEARCHVAL":"ADMIRALTY PLACE","X":"24482.0590426466","Y":"46785.5494471118","LATITUDE":"1.4393861538054198","LONGITUDE":"103.80170647049101","LONGTITUDE":"103.80170647049101"}},{"title":"LiHO @ Fairprice Hub","address":"Fairprice Hub\n                                             \n                                                                                        #02-31 ,  1 Joo Koon Circle, 629117","phone":null,"chain":"LiHO","location":{"SEARCHVAL":"FAIRPRICE HUB","X":"10758.243767676899","Y":"34181.1482410673","LATITUDE":"1.32539180665078","LONGITUDE":"103.67839226533701","LONGTITUDE":"103.67839226533701"}},{"title":"LiHO @ One Km","address":"Kinex\n                                             \n                                                                                        #B1-K5 ,  11 Tanjong Katong Road, 437157","phone":null,"chain":"LiHO","location":{"SEARCHVAL":"DBS ONE KM","X":"34835.3928884091","Y":"32989.4359148946","LATITUDE":"1.3146184988924299","LONGITUDE":"103.894738004496","LONGTITUDE":"103.894738004496"}},{"title":"LiHO @ Waterway Point","address":"Waterway Point (Shopping Centre)\n                                             \n                                                                                        #B2-K10,  83 Punggol Central, 828761","phone":null,"chain":"LiHO","location":{"SEARCHVAL":"DBS WATERWAY POINT BRANCH","X":"35670.420423625","Y":"43136.215863945","LATITUDE":"1.4063820961698401","LONGITUDE":"103.902243744842","LONGTITUDE":"103.902243744842"}},{"title":"LiHO @ Paragon","address":"Paragon Shopping Centre\n                                             \n                                                                                        #B1-39/40,  290 Orchard Road, 238859","phone":"Tel : 6235 7511","chain":"LiHO","location":{"SEARCHVAL":"THE PARAGON","X":"28281.081577228397","Y":"31809.6139423735","LATITUDE":"1.3039493635530102","LONGITUDE":"103.83584422762699","LONGTITUDE":"103.83584422762699"}},{"title":"LiHO @ Suntec City Mall","address":"Suntec City Mall\n                                             \n                                                                                        #03-379,  3 Temasek Boulevard, 038983","phone":"Tel : 6836 1348","chain":"LiHO","location":{"SEARCHVAL":"SUNTEC CITY MALL","X":"30829.796117031","Y":"30927.3030645177","LATITUDE":"1.2959699274965502","LONGITUDE":"103.858745530061","LONGTITUDE":"103.858745530061"}},{"title":"LiHO @ 18 Tai Seng","address":"18 Tai Seng\n                                             \n                                                                                        #B1-11,  18 Tai Seng Street, 539775","phone":null,"chain":"LiHO","location":{"SEARCHVAL":"DBS NTUC MAPLETREE18","X":"34175.0439454494","Y":"35400.0329231899","LATITUDE":"1.3364192147596599","LONGITUDE":"103.888804925899","LONGTITUDE":"103.888804925899"}},{"title":"LiHO @ Resorts World Sentosa","address":"Resorts World at Sentosa\n                                             \n                                                                                        #01-83 ,  8 Sentosa Gateway, 098269","phone":"Tel : 6683 2335","chain":"LiHO","location":{"SEARCHVAL":"ADVENTURE COVE WATERPARK SINGAPORE","X":"26549.4366384372","Y":"26395.8439646289","LATITUDE":"1.2549890939786201","LONGITUDE":"103.82028484165001","LONGTITUDE":"103.82028484165001"}},{"title":"Woodlands","address":"Woodlands MRT #0101-26 Woodlabd AVE 2Singapore 738343 Singapore","openingHours":"Monday12:00 – 21:00Tuesday12:00 – 21:00Wednesday12:00 – 21:00Thursday12:00 – 21:00Friday12:00 – 21:00SaturdayClosedSundayClosed","chain":"ShareTea","location":{"SEARCHVAL":"WOODLANDS MRT STATION (NS9)","X":"22741.5981903831","Y":"46501.7861009184","LATITUDE":"1.43681962961519","LONGITUDE":"103.786066799253","LONGTITUDE":"103.786066799253"}},{"title":"Parkway Parade","address":"80 Marine Parade Road, Parkway Parade, #B1-21Singapore 449269 Singapore","openingHours":"Monday11:00 – 22:00Tuesday11:00 – 22:00Wednesday11:00 – 22:00Thursday11:00 – 22:00Friday11:00 – 22:00SaturdayClosedSundayClosed","chain":"ShareTea","location":{"SEARCHVAL":"UOB PARKWAY PARADE BRANCH","X":"36000.3023096407","Y":"31497.8014978133","LATITUDE":"1.30112841266069","LONGITUDE":"103.905204909662","LONGTITUDE":"103.905204909662"}},{"title":"NUH","address":"No.1 Lower Kent Ridge Rd #01-14, One@Kent RidgeNUH Medical Centre QueenstownSingapore 119082 Singapore","openingHours":"Monday11:00 – 21:00Tuesday11:00 – 21:00Wednesday11:00 – 21:00Thursday11:00 – 21:00Friday11:00 – 21:00SaturdayClosedSundayClosed","chain":"ShareTea","location":{"SEARCHVAL":"DBS NTUC NUH","X":"22587.5691127833","Y":"30655.6528140679","LATITUDE":"1.2935128771923101","LONGITUDE":"103.7846855811","LONGTITUDE":"103.7846855811"}},{"title":"Northpoint Shopping Centre","address":"#B1-12, 930 Yishun Avenue 2Singapore 769098 Singapore","openingHours":"Monday9:00 AM – 5:00 PMTuesday9:00 AM – 5:00 PMWednesday9:00 AM – 5:00 PMThursday9:00 AM – 5:00 PMFriday9:00 AM – 5:00 PMSaturdayClosedSundayClosed","chain":"ShareTea","location":{"SEARCHVAL":"930 YISHUN AVENUE 2 SINGAPORE 769098","X":"28273.529019127596","Y":"45714.311626344905","LATITUDE":"1.4296984862629099","LONGITUDE":"103.835776491468","LONGTITUDE":"103.835776491468"}},{"title":"Jurong Point Shopping Center","address":"63 JURONG WEST CENTRAL 3 #03-53Jurong Point Shopping CenterSingapore 648886 Singapore","openingHours":"Monday11:00 – 22:00Tuesday11:00 – 22:00Wednesday11:00 – 22:00Thursday11:00 – 22:00Friday11:00 – 22:00SaturdayClosedSundayClosed","chain":"ShareTea","location":{"SEARCHVAL":"JURONG POINT","X":"13907.0305282855","Y":"35735.677712231896","LATITUDE":"1.3394520043632099","LONGITUDE":"103.706685012926","LONGTITUDE":"103.706685012926"}},{"title":"Bugis Junction","address":"#01-14A 200 Victoria StreetSingapore 188021 Singapore","openingHours":"Monday11:00 – 22:00Tuesday11:00 – 22:00Wednesday11:00 – 22:00Thursday11:00 – 22:00Friday11:00 – 22:00SaturdayClosedSundayClosed","chain":"ShareTea","location":{"SEARCHVAL":"SHAW ORGANISATION (BUGIS)","X":"30449.4467267562","Y":"31269.866418475296","LATITUDE":"1.2990679819128998","LONGITUDE":"103.855327952042","LONGTITUDE":"103.855327952042"}},{"title":"Jcube","address":"2 Jurong East Central 1 JCube #B1-K01Singapore 609731 Singapore","openingHours":"Monday11:00 AM – 10:00 PMTuesday11:00 AM – 10:00 PMWednesday11:00 AM – 10:00 PMThursday11:00 AM – 10:00 PMFriday11:00 AM – 10:00 PMSaturday11:00 AM – 10:00 PMSunday11:00 AM – 10:00 PM","chain":"ShareTea","location":{"SEARCHVAL":"DBS JCUBE","X":"17649.945089573997","Y":"35051.2179290708","LATITUDE":"1.33326351781135","LONGITUDE":"103.74031748518601","LONGTITUDE":"103.74031748518601"}}]